zona,CD_Local,Nome do Local,Município,Endereço,Bairro,secao,Seção-Aptos,Quantidade de Aptos,Latitude,Longitude
1,1465,"ASSOCIAÇÃO DOS FORNECEDORES DE CANA DE PE",Recife,"AV MAL MASCARENHAS DE MORAIS          2028","IMBIRIBEIRA","396, 397, 398, 399, 400, 401, 402, 403, 404, 405, 406, 407, 408","396-322, 397-322, 398-321, 399-322, 400-325, 401-325, 402-323, 403-322, 404-325, 405-322, 406-321, 407-325, 408-324",4199,-8.1023919,-34.9107612
1,1333,"CENTRO DE EDUCAÇÃO INFANTIL BERNARD VAN LEER",Recife,"RUA FRANCISCO VALPASSOS, S/N","BRASILIA TEIMOSA","285, 291, 295, 306, 315, 321","285-366, 291-367, 295-362, 306-370, 315-366, 321-363",2194,-8.0852583,-34.8829894
1,1350,"CLUBE DOS RODOVIÁRIOS - AO LADO DO VIADUTO TANCREDO NEVES",Recife,"AV. MASCARENHA DE MORAIS, 4223","IMBIRIBEIRA","302, 309, 317, 325, 327, 333","302-344, 309-344, 317-345, 325-346, 327-345, 333-347",2071,-8.1219423,-34.9141219
1,1023,"COLEGIO BOA VIAGEM",Recife,"RUA PROFESSOR EDUARDO WANDERLEY FILHO, 539 BOA VIAGEM","BOA VIAGEM","31, 32, 33, 34, 35, 36, 37, 38, 39, 40, 41, 42, 219, 225, 230, 232, 239, 247, 316, 319, 329, 338, 339, 340, 341, 342, 448","31-394, 32-393, 33-392, 34-394, 35-390, 36-394, 37-392, 38-394, 39-393, 40-394, 41-391, 42-394, 219-393, 225-391, 230-395, 232-394, 239-394, 247-392, 316-394, 319-393, 329-393, 338-392, 339-393, 340-393, 341-394, 342-392, 448-394",10612,-8.1107234,-34.8945368
1,1449,"COLÉGIO GGE (ANTIGO ATUAL I / FAPE)",Recife,"RUA JOSÉ DA SILVA LUCENA, 20","IMBIRIBEIRA","350, 352, 354, 356, 358, 360, 362, 364, 367, 368, 443, 446, 449, 450, 451, 452, 455","350-382, 352-379, 354-380, 356-381, 358-378, 360-380, 362-381, 364-382, 367-380, 368-378, 443-382, 446-383, 449-382, 450-381, 451-378, 452-381, 455-382",6470,-8.1156868,-34.9048323
1,1384,"COLÉGIO MÁRCIA CRISTINA",Recife,"AV. ENCANTA MOÇA, 136 - PINA","PINA","305, 310, 323","305-368, 310-368, 323-367",1103,-8.0894454,-34.8858766
1,1490,"COLÉGIO MOTIVO",Recife,"RUA ALAMEDA DAS HORTÊNCIAS","IMBIRIBEIRA","419, 420, 421, 422, 423, 424, 425, 426, 427, 428, 429, 430, 431, 432, 433, 434, 435, 436, 437, 438","419-387, 420-387, 421-386, 422-386, 423-386, 424-384, 425-387, 426-386, 427-386, 428-384, 429-384, 430-385, 431-386, 432-387, 433-384, 434-386, 435-393, 436-387, 437-387, 438-388",7726,-8.1166467,-34.9058835
1,1040,"COLEGIO SANTA MARIA",Recife,"RUA PADRE BERNARDINO PESSOA,  512 BOA VIAGEM","BOA VIAGEM","55, 56, 57, 58, 59, 60, 61, 62, 63, 64, 65, 66, 67, 68, 69, 70, 71, 72, 73, 74, 75, 210, 246, 256, 304, 307, 312, 313, 320, 328, 442, 445","55-416, 56-415, 57-397, 58-397, 59-397, 60-399, 61-396, 62-395, 63-397, 64-398, 65-398, 66-398, 67-396, 68-397, 69-395, 70-397, 71-398, 72-397, 73-398, 74-395, 75-398, 210-398, 246-397, 256-397, 304-416, 307-395, 312-398, 313-398, 320-396, 328-398, 442-398, 445-398",12763,-8.1126771,-34.8971096
1,1520,"CRECHE MUNICIPAL SENADOR PAULO GUERRA",Recife,"RUA ENGENHO CANTO ALEGRE, S/N - IMBIRIBEIRA - RECIFE/PE","IMBIRIBEIRA","343, 441","343-348, 441-257",605,-8.0884729,-34.9048766
1,1120,"DEPARTAMENTO NACIONAL DE INFRAESTRUTURA E TRANSPORTE",Recife,"AV. ENGENHEIRO ANTONIO DE GOIS ,520","PINA","147, 149, 151, 153","147-368, 149-368, 151-368, 153-366",1470,-8.0847523,-34.8869718
1,1481,"ESCOLA ELEONOR ROOSEVELT",Recife,"RUA JEAN EMILE FAVRE S/N, PÇA DA MAURICÉIA","IPSEP","410, 411, 412, 413, 414, 415, 416, 417, 418","410-398, 411-400, 412-397, 413-397, 414-416, 415-398, 416-396, 417-399, 418-396",3597,-8.1080517,-34.9165719
1,1147,"ESCOLA ESTADUAL ASSIS CHATEAUBRIAND",Recife,"RUA FRANCISCO VALPASSOS, SN, BRASÍLIA TEIMOSA","BRASILIA TEIMOSA","165, 166, 167, 168, 169, 170, 221, 240, 258, 270, 275, 279","165-402, 166-390, 167-386, 168-389, 169-393, 170-394, 221-388, 240-390, 258-392, 270-395, 275-388, 279-387",4694,-8.0866075,-34.882666
1,1155,"ESCOLA ESTADUAL DELMIRO GOUVEIA",Recife,"AV. CONSELHEIRO AGUIAR,  S/N","PINA","171, 172, 173, 174, 186, 187, 253","171-336, 172-335, 173-341, 174-338, 186-339, 187-333, 253-337",2359,-8.0927662,-34.8839828
1,1163,"ESCOLA ESTADUAL JOAO BEZERRA",Recife,"RUA FRANCISCO VALPASSOS, SN","PINA","160, 161, 162, 179, 180, 190, 196, 197, 200, 202, 204, 245, 254, 273, 277","160-389, 161-390, 162-405, 179-391, 180-392, 190-390, 196-392, 197-390, 200-390, 202-384, 204-389, 245-384, 254-393, 273-389, 277-385",5853,-8.0860511,-34.8829294
1,1171,"ESCOLA ESTADUAL LANDELINO ROCHA",Recife,"AV. CONSELHEIRO AGUIAR , SN","PINA","181, 182, 183, 205, 334","181-393, 182-393, 183-392, 205-390, 334-391",1959,-8.0928228,-34.8836534
1,1317,"ESCOLA ESTADUAL MENINO JESUS",Recife,"AV. DOMINGOS FERREIRA, S/N","PINA","294, 300, 314","294-382, 300-379, 314-382",1143,-8.1002108,-34.8870776
1,1368,"ESCOLA ESTADUAL SÃO FRANCISCO DE ASSIS",Recife,"RUA SARGENTO SÍLVIO DELMAR HOLLEMBACK, S/N","IMBIRIBEIRA","303, 318, 326, 331, 440","303-360, 318-360, 326-370, 331-362, 440-362",1814,-8.1048035,-34.9092206
1,1066,"ESCOLA ESTADUAL SARGENTO CAMARGO",Recife,"RUA ANTONIO FALCAO, 136 BOA VIAGEM","BOA VIAGEM","93, 94, 95, 96, 97, 98, 287","93-421, 94-396, 95-395, 96-398, 97-393, 98-396, 287-396",2795,-8.1166912,-34.8940292
1,1244,"ESCOLA LUIS DE CAMOES",Recife,"RUA DOUTOR HENRIQUE LINS ,S/N","BRASILIA TEIMOSA","163, 164, 175, 176, 177, 178, 229, 231, 252, 281, 289","163-301, 164-299, 175-298, 176-300, 177-300, 178-298, 229-299, 231-302, 252-296, 281-298, 289-297",3288,-8.0848464,-34.8826088
1,1430,"ESCOLA MUNICIPAL ALMIRANTE SOARES DUTRA",Recife,"RUA CAMUTANGA S/N","CABANGA","344, 345, 346, 347, 348, 349","344-291, 345-293, 346-293, 347-293, 348-289, 349-291",1750,-8.0790855,-34.8950788
1,1503,"ESCOLA MUNICIPAL ENGENHEIRO HENOCH COUTINHO DE MELO",Recife,"RUA DAS OFICINAS, 12","PINA","454","454-25",25,-8.0847614,-34.8839102
1,1104,"ESCOLA MUNICIPAL JOÃO CABRAL DE MELO NETO",Recife,"AV. ENCANTA MOCA, S/N","PINA","131, 132, 133, 134, 206","131-349, 132-348, 133-348, 134-348, 206-347",1740,-8.0916765,-34.8860153
1,1341,"ESCOLA MUNICIPAL JOSUÉ DE CASTRO",Recife,"RUA GUARAJUBA, S/N","BRASILIA TEIMOSA","296, 308, 322","296-392, 308-388, 322-388",1168,-8.0842529,-34.8818459
1,1279,"ESCOLA MUNICIPAL KARLA PATRICIA",Recife,"RUA PROFESSOR EDUARDO WANDERLEY FILHO, 700","BOA VIAGEM","260, 272, 274, 278, 282, 290, 298, 447","260-394, 272-392, 274-395, 278-388, 282-391, 290-392, 298-391, 447-395",3138,-8.1089216,-34.8959428
1,1236,"ESCOLA MUNICIPAL NOVO PINA",Recife,"RUA EURICO VITRUVIO, S/N","PINA","155, 156, 157, 158, 159, 244, 255, 266, 286, 293, 301","155-385, 156-386, 157-382, 158-382, 159-382, 244-384, 255-378, 266-382, 286-383, 293-378, 301-378",4200,-8.0916098,-34.8876861
1,1139,"ESCOLA MUNICIPAL OSVALDO LIMA FILHO",Recife,"AV. ENGENHEIRO DOMINGOS FERREIRA  , S/N","PINA","135, 136, 137, 144, 145, 146, 184, 185, 215, 223, 227, 235, 238, 335","135-373, 136-373, 137-373, 144-371, 145-371, 146-376, 184-374, 185-374, 215-379, 223-373, 227-370, 235-370, 238-375, 335-368",5220,-8.0990131,-34.8865853
1,1325,"ESCOLA MUNICIPAL SOLANO MAGALHAES",Recife,"RUA JEMIL ASFORA, S/N JARDIM BEIRA RIO","PINA","297, 311, 324, 330, 337, 453","297-360, 311-356, 324-365, 330-360, 337-346, 453-290",2077,-8.087968,-34.8933762
1,1112,"ESCOLA MUNICIPAL UMBERTO GONDIM",Recife,"RUA DAS OFICINAS, 13","PINA","138, 140, 142, 212","138-283, 140-280, 142-280, 212-296",1139,-8.0847435,-34.8841292
1,1457,"FACULDADE BOA VIAGEM - FBV",Recife,"RUA JEAN EMILE FAVRE, 422","IMBIRIBEIRA","370, 371, 372, 373, 374, 375, 376, 377, 378, 379, 380, 381, 382, 383, 384, 385, 386, 387, 388, 389, 390, 391, 392, 393, 394, 395","370-391, 371-386, 372-389, 373-385, 374-388, 375-389, 376-386, 377-386, 378-391, 379-385, 380-390, 381-388, 382-388, 383-385, 384-387, 385-386, 386-388, 387-384, 388-385, 389-382, 390-384, 391-387, 392-386, 393-390, 394-387, 395-386",10059,-8.1066778,-34.9149772
1,1511,"FACULDADE NOVA ROMA - UNIDADE BOA VIAGEM",Recife,"RUA PADRE CARAPUCEIRO, 590","BOA VIAGEM","456, 458","456-398, 458-55",453,-8.1177563,-34.9001164
1,1473,"LOGOS COLÉGIO",Recife,"RUA ZEFERINO PINHO, 507","IMBIRIBEIRA","409, 444","409-336, 444-217",553,-8.0988747,-34.9116302
1,1406,"NÚCLEO COLÉGIO  -  (ANTIGO COLEGIO GGE)",Recife,"AV. DOMINGOS FERREIRA, 2142  -  (PRÓXIMO À IMOBILIÁRIA PAULO MIRANDA)","BOA VIAGEM","332, 336, 457","332-389, 336-373, 457-264",1026,-8.1084724,-34.8908372
1,1252,"UNIVERSIDADE SALGADO DE OLIVEIRA - UNIVERSO",Recife,"AV. MASCARENHAS DE MORAES, 2169","IMBIRIBEIRA","111, 112, 113, 114, 115, 116, 117, 118, 119, 120, 121, 122, 123, 124, 125, 261, 269, 276, 280, 283, 288, 292, 299","111-245, 112-243, 113-244, 114-242, 115-244, 116-240, 117-244, 118-243, 119-242, 120-240, 121-242, 122-240, 123-244, 124-245, 125-245, 261-243, 269-241, 276-242, 280-243, 283-244, 288-247, 292-241, 299-245",5589,-8.1032052,-34.9105553
2,1589,"CENTRO COMUNITÁRIO SEBASTIÃO DANTAS",Recife,"RUA PALMARES               116","AREIAS","362, 363, 364, 365, 366, 367","362-214, 363-214, 364-214, 365-214, 366-212, 367-214",1282,-8.0948358,-34.9369041
2,1627,"COLÉGIO 2001 - CENTRO EDUCACIONAL JARDIM SÃO PAULO",Recife,"RUA VITORIANO EBLA, 49","JARDIM SÃO PAULO","392, 393, 394, 395, 396, 397","392-367, 393-365, 394-364, 395-367, 396-364, 397-364",2191,-8.0796714,-34.936032
2,1732,"COLÉGIO 2001-CENTRO EDUC.JD.SÃO PAULO - ANEXO II (ANT. STA BÁRBARA)",Recife,"AVENIDA SÃO PAULO, 257","JARDIM SÃO PAULO","454, 455, 456, 457, 458, 459, 460, 461, 462, 463, 464, 465","454-393, 455-395, 456-393, 457-395, 458-394, 459-393, 460-396, 461-392, 462-393, 463-393, 464-392, 465-391",4720,-8.0840715,-34.9389624
2,1848,"COLÉGIO AVANCE",Recife,"RUA RIO MAJU, 130","IPSEP","441, 442, 443, 444, 445, 446, 447, 448, 449, 450","441-267, 442-265, 443-267, 444-270, 445-265, 446-266, 447-265, 448-264, 449-267, 450-263",2659,-8.1129804,-34.9176604
2,1805,"COLÉGIO E CURSO INOVAÇÃO - CCI",Recife,"RUA PADRE LIMA E SA, 407","IPSEP","538, 539, 540, 541, 542, 543, 544, 545, 546","538-279, 539-278, 540-278, 541-278, 542-285, 543-277, 544-278, 545-279, 546-277",2509,-8.1118883,-34.9256563
2,1660,"COLÉGIO INCENTIVO",Recife,"RUA DR. JOSÉ CONSTANTINO,96","AREIAS","421, 422, 423, 424, 425, 426, 427","421-362, 422-361, 423-364, 424-362, 425-364, 426-364, 427-363",2540,-8.0921983,-34.9365547
2,1120,"COLEGIO VISAO",Recife,"AVENIDA DOUTOR JOSÉ RUFINO, 241","ESTÂNCIA","59, 60, 61, 62, 63, 64, 65, 66, 67, 68, 69, 70, 71, 230, 246, 252, 257, 262","59-395, 60-410, 61-398, 62-393, 63-397, 64-397, 65-396, 66-397, 67-397, 68-397, 69-396, 70-397, 71-396, 230-394, 246-392, 252-397, 257-394, 262-395",7138,-8.0850436,-34.9278578
2,1562,"CRECHE ESCOLA RECIFE GOVERNADOR MIGUEL ARRAES",Recife,"RUA DR. GILARDI RODRIGUES DOS SANTOS, N.10","ESTÂNCIA","85, 236, 258, 260, 349, 355, 357","85-342, 236-346, 258-342, 260-340, 349-374, 355-368, 357-363",2475,-8.095895,-34.9240024
2,1899,"CRECHE MUNICIPAL DE AFOGADOS",Recife,"RUA RUBIÁCEA, 360","AFOGADOS","556","556-2",2,0,0
2,1821,"CRECHE MUNICIPAL SANTA LUZIA",Recife,"RUA PROFESSOR CALDAS FILHO, 186","ESTÂNCIA","555","555-127",127,-8.0854588,-34.9282643
2,1708,"CRECHE RECIFE 2000",Recife,"RUA RIO SOLIMÕES, S/N","JARDIM UCHÔA","439, 440, 554","439-367, 440-364, 554-59",790,-8.0975434,-34.9372927
2,1066,"ESCOLA AMAURY DE MEDEIROS",Recife,"RUA SAO MIGUEL S/N","AFOGADOS","33, 34, 35, 36, 37, 38, 39, 40, 41, 241, 350, 353, 356, 358, 361","33-396, 34-392, 35-409, 36-390, 37-393, 38-393, 39-393, 40-392, 41-390, 241-395, 350-390, 353-394, 356-393, 358-394, 361-392",5906,-8.0806141,-34.9080499
2,1856,"ESCOLA ANITA GARIBALDI (UNIDADE I)",Recife,"R. AGRIC. JOÃO B. DE OLIVEIRA, 53","IMBIRIBEIRA","101, 102, 103, 104, 105","101-313, 102-312, 103-314, 104-313, 105-311",1563,-8.0955399,-34.9122979
2,1538,"ESCOLA ANITA GARIBALDI (UNIDADE II)",Recife,"RUA CÔNEGO LIRA, 282","IMBIRIBEIRA","337, 344, 348, 351, 354, 359","337-386, 344-386, 348-387, 351-385, 354-385, 359-386",2315,-8.0939618,-34.9117679
2,1775,"ESCOLA BARÃO DE BONITO",Recife,"PRAÇA 4 DE OUTUBRO, SN","AREIAS","502, 503, 504, 505, 506, 507, 508, 509, 510, 511","502-315, 503-315, 504-313, 505-310, 506-313, 507-313, 508-313, 509-312, 510-313, 511-314",3131,-8.0950174,-34.9388824
2,1481,"ESCOLA DÉBORA FEIJÓ",Recife,"RUA JOVELINO SELVA, 71","AFOGADOS","152, 153, 154, 155, 156, 157, 312, 313, 315","152-399, 153-399, 154-391, 155-395, 156-392, 157-394, 312-394, 313-397, 315-394",3555,-8.0804116,-34.9209845
2,1643,"ESCOLA DOM BOSCO",Recife,"RUA ALVENÓPOLIS, 600","JARDIM SÃO PAULO","403, 404, 405, 406, 407, 408, 409, 410, 411, 412, 413, 414, 415, 416, 417, 418","403-341, 404-345, 405-341, 406-343, 407-342, 408-346, 409-341, 410-344, 411-345, 412-344, 413-342, 414-344, 415-339, 416-339, 417-339, 418-341",5476,-8.0794774,-34.9483363
2,1759,"ESCOLA ENGENHEIRO LAURO DINIZ",Recife,"RUA: SATURNINO MEIRELES, S/N, VILA DA SUDENE","IPSEP","474, 475, 476, 477, 478, 479, 480, 481, 482, 483, 484","474-371, 475-373, 476-373, 477-371, 478-372, 479-372, 480-372, 481-374, 482-371, 483-373, 484-373",4095,-8.1144305,-34.921196
2,1163,"ESCOLA GERCINO DE PONTES",Recife,"RUA ALVARO AMORIM, SN                  ","IMBIRIBEIRA","97, 98, 99, 100, 227, 228, 229, 247","97-341, 98-343, 99-343, 100-345, 227-343, 228-343, 229-341, 247-345",2744,-8.0861991,-34.911016
2,1783,"ESCOLA HERÓIS DA RESTAURAÇÃO",Recife,"RUA OITICICA LINS - 55","AREIAS","512, 513, 514, 515, 516, 517, 518, 519, 520, 521, 522, 523","512-383, 513-380, 514-382, 515-381, 516-382, 517-382, 518-384, 519-384, 520-384, 521-384, 522-381, 523-384",4591,-8.0977137,-34.9352353
2,1678,"ESCOLA JOSÉ MARIANO",Recife,"AV. DR. JOSÉ RUFINO, 892","AREIAS","428, 429, 430, 431, 432, 433","428-395, 429-396, 430-395, 431-393, 432-392, 433-396",2367,-8.0879471,-34.9324667
2,1791,"ESCOLA MARIANO TEIXEIRA",Recife,"AV FELIPE FERREIRA- SN","AREIAS","524, 525, 526, 527, 528, 529, 530, 531, 532, 533, 534, 535, 536, 537","524-392, 525-391, 526-392, 527-395, 528-390, 529-390, 530-395, 531-393, 532-393, 533-396, 534-394, 535-390, 536-391, 537-390",5492,-8.0956701,-34.9308423
2,1350,"ESCOLA MUN. MIGUEL ARRAES DE ALENCAR-SEDE (ANT. WALT DISNEY- ESTANCIA)",Recife,"AV TAPAJOS , 433","ESTÂNCIA","72, 73, 74, 75, 76, 77, 78, 79, 80, 81, 82, 83, 84","72-335, 73-334, 74-332, 75-333, 76-334, 77-332, 78-334, 79-331, 80-333, 81-332, 82-333, 83-337, 84-330",4330,-8.092548,-34.9255037
2,1929,"ESCOLA MUNICIPAL ANDRÉ DE MELO",Recife,"RUA MORAIS E SILVA, S/N","ESTÂNCIA","560","560-2",2,0,0
2,1619,"ESCOLA MUNICIPAL BALBINA MENELAU",Recife,"RUA JOÃO DE ANDRADE, 82","JARDIM SÃO PAULO","387, 388, 389, 390, 391","387-395, 388-392, 389-395, 390-394, 391-396",1972,-8.0832263,-34.9497006
2,1635,"ESCOLA MUNICIPAL CHICO MENDES",Recife,"1 TRAVESSA DO CAMPO NÚMERO: S/N","AREIAS","398, 399, 400, 401, 402","398-377, 399-382, 400-379, 401-383, 402-381",1902,-8.1032539,-34.9326317
2,1686,"ESCOLA MUNICIPAL ISAAC PEREIRA DA SILVA",Recife,"RUA OITICICA LINS, S/N","AREIAS","434, 435, 436","434-303, 435-302, 436-304",909,-8.0933279,-34.9348106
2,1902,"ESCOLA MUNICIPAL JARDIM MAURICÉIA",Recife,"AV NICOLAU COPÉRNICO, 1107","IMBIRIBEIRA","557","557-1",1,0,0
2,1651,"ESCOLA MUNICIPAL JARDIM UCHÔA",Recife,"RUA JUPIATA, 211","AREIAS","419, 420","419-283, 420-286",569,-8.0947243,-34.9366369
2,1724,"ESCOLA MUNICIPAL LUIS VAZ DE CAMÕES ",Recife,"R. JACUNDA, 505 - IPSEP, RECIFE - PE","IPSEP","451, 452, 453","451-311, 452-309, 453-189",809,-8.1101518,-34.9213803
2,1961,"ESCOLA MUNICIPAL POETA CARLOS PENA FILHO",Recife,"AV LIBERDADE, 461","JARDIM SÃO PAULO","558","558-3",3,0,0
2,1945,"ESCOLA MUNICIPAL PROFESSORA PRIMITIVA DE BARROS SILVA",Recife,"RUA. ATOR ELPÍDIO CÂMARA","JARDIM SÃO PAULO","559","559-2",2,0,0
2,1872,"ESCOLA MUNICIPAL SANTA LUZIA",Recife,"RUA PROF. CALDAS FILHOS","ESTÂNCIA","274, 276, 277, 278, 316, 322, 330, 336","274-379, 276-377, 277-378, 278-374, 316-383, 322-373, 330-377, 336-379",3020,-8.0854451,-34.9283202
2,1880,"ESCOLA MUNICIPAL VILA SÃO MIGUEL",Recife,"RUA RUBIÁCEA, 360","AFOGADOS","561","561-1",1,0,0
2,1597,"ESCOLA PADRE JOSE MATHIAS DELGADO",Recife,"RUA DEVALDO BORGES, SN","JARDIM SÃO PAULO","368, 369, 370, 371, 372, 373, 374, 375, 376, 377, 378","368-318, 369-312, 370-311, 371-312, 372-311, 373-310, 374-311, 375-313, 376-309, 377-310, 378-311",3428,-8.0789951,-34.9399709
2,1414,"ESCOLA PINHEIROS",Recife,"RUA ARQUITETO LUIZ NUNES, 673","IMBIRIBEIRA","286, 287, 288, 289, 314, 318, 324, 332","286-389, 287-392, 288-392, 289-392, 314-388, 318-389, 324-390, 332-392",3124,-8.0901962,-34.9103943
2,1813,"ESCOLA PLANETA INFANTIL",Recife,"RUA LEANDRO BARRETO, 748","JARDIM SÃO PAULO","547, 548, 549, 550, 551, 552, 553","547-387, 548-388, 549-389, 550-386, 551-389, 552-391, 553-388",2718,-8.0825288,-34.9471679
2,1600,"ESCOLA PROFESSOR JOSÉ VICENTE",Recife,"PRAÇA ALEIXO DE OLIVEIRA,SN","IPSEP","379, 380, 381, 382, 383, 384, 385, 386","379-261, 380-265, 381-258, 382-259, 383-261, 384-263, 385-260, 386-261",2088,-8.1129913,-34.924663
2,1694,"ESCOLA PROFISSIONALIZANTE DE AREIAS",Recife,"RUA IPOJUCA,257","AREIAS","437, 438","437-249, 438-188",437,-8.0939891,-34.9359538
2,1449,"ESCOLA SENADOR NILO COELHO",Recife,"AV. RECIFE, CONJ. RES. IGNEZ ANDREAZZA, SN","ESTÂNCIA","298, 299, 300, 301, 317, 325, 329, 333, 340, 342","298-386, 299-382, 300-381, 301-386, 317-384, 325-384, 329-385, 333-383, 340-385, 342-387",3843,-8.0942904,-34.9279336
2,1767,"ESCOLA TRAJANO DE MENDONCA",Recife,"RUA CAPETINGA, SN","JARDIM SÃO PAULO","485, 486, 487, 488, 489, 490, 491, 492, 493, 494, 495, 496, 497, 498, 499, 500, 501","485-344, 486-342, 487-343, 488-345, 489-345, 490-344, 491-345, 492-342, 493-345, 494-344, 495-344, 496-341, 497-342, 498-344, 499-344, 500-343, 501-341",5838,-8.0786768,-34.9416587
2,1864,"GRAU TÉCNICO",Recife,"AV. MAL. MASCARENHAS DE MORAIS, 1062","IMBIRIBEIRA","55, 56, 57, 58, 255, 259","55-297, 56-295, 57-294, 58-291, 255-291, 259-290",1758,-8.0922333,-34.9089477
2,1740,"SENAI - SERVICO NACIONAL DE APRENDIZAGEM INDUSTRIAL",Recife,"AVENIDA DR JOSE RUFINO, NÚMERO: 1099","AREIAS","466, 467, 468, 469, 470, 471, 472, 473","466-346, 467-349, 468-348, 469-347, 470-348, 471-351, 472-349, 473-347",2785,-8.0897125,-34.9337771
3,1716,"CEJA - POETA JOAQUIM CARDOSO",Recife,"AVENIDA JOSÉ RUFINO, 3071","TEJIPIÓ","316, 317, 350, 356, 426, 443, 477","316-318, 317-320, 350-322, 356-243, 426-320, 443-318, 477-317",2158,-8.09194139,-34.94986917
3,2020,"CENTRO SOCIAL URBANO BIDO KRAUSE",Recife,"RUA 11 DE AGOSTO                       SN","TEJIPIÓ","643, 644, 645, 646, 647, 648, 649, 650, 651, 652, 809","643-396, 644-398, 645-397, 646-397, 647-394, 648-396, 649-398, 650-396, 651-396, 652-395, 809-397",4360,-8.0796637,-34.97035266
3,1058,"COLÉGIO IMACULADA CONCEIÇÃO",Recife,"AVENIDA DOUTOR JOSÉ RUFINO , 2184","BARRO","35, 36, 37, 38, 39, 40, 41, 54, 55, 56, 361, 373","35-399, 36-397, 37-395, 38-397, 39-397, 40-395, 41-394, 54-396, 55-397, 56-395, 361-395, 373-396",4753,-8.09285426,-34.94217156
3,2330,"COLÉGIO MULTIPLO ENSINO",Recife,"RUA GUANABARA,99","TEJIPIÓ","678, 731, 732, 733, 734, 812","678-393, 731-394, 732-395, 733-394, 734-394, 812-393",2363,-8.08988501,-34.96537258
3,2224,"CRECHE ESCOLA DO IBURA (ANTIGO CENTRO  MUN. EDUC. INFANTIL DO IBURA)",Recife,"AV EXPEDICIONÁRIO FRANCISCO VITORIANO, S/N - UR-10","IBURA","747, 802, 811","747-370, 802-373, 811-373",1116,-8.13393986,-34.9496055
3,2321,"CRECHE ESCOLA GOVERNADOR EDUARDO CAMPOS",Recife,"RUA VALE DO CARIRI, S/N - UR-5","COHAB","711, 712, 713, 714, 715, 716","711-397, 712-396, 713-395, 714-396, 715-395, 716-399",2378,-8.13203105,-34.94851271
3,2313,"CRECHE ESCOLA MAURICÉIA DA SILVA DIAS ( CRECHE PANTANAL )",Recife,"AV. PRESIDENTE MÉDICI, S/N - UR3","COHAB","785, 786, 787, 795, 808","785-386, 786-384, 787-383, 795-382, 808-383",1918,-8.10706398,-34.95690014
3,2070,"CRECHE MUNICIPAL SONHO DO POVO",Recife,"RUA CORDILHEIRA, S/N","UR 1 - IBURA","679, 680, 681","679-398, 680-398, 681-398",1194,-8.1190292,-34.94557325
3,2143,"ERFEM - MONTE VERDE",Recife,"RUA MARIA LIMA DA SILVA, SN","MONTE VERDE - IBURA","815","815-168",168,-8.1162378,-34.96035165
3,2100,"ESC. MUN. ASA BRANCA",Recife,"R MARIA ADELAIDE CASTELO BRANCO, 55 - COHAB","IBURA","687, 805","687-320, 805-294",614,-8.12417608,-34.94930227
3,2135,"ESC.MUN.PROF.ORLANDO PARAHYM",Recife,"R SOLDADO VIRGILIO LÚCIO, 104 - UR-4","IBURA","696, 804","696-338, 804-246",584,-8.12765049,-34.94727296
3,1252,"ESCOLA ALBERTO TORRES",Recife,"AV. DR. JOSÉ RUFINO, 2993","TEJIPIÓ","197, 198, 199, 200, 263, 268, 286, 287, 289, 379","197-377, 198-383, 199-381, 200-379, 263-383, 268-380, 286-382, 287-378, 289-382, 379-382",3807,-8.09147707,-34.94980369
3,1511,"ESCOLA ANIBAL FALCÃO",Recife,"RUA APRIGIO GUIMARAES, 102","TEJIPIÓ","417, 438, 445, 460, 470, 483, 487, 491, 801","417-392, 438-394, 445-395, 460-395, 470-397, 483-396, 487-392, 491-397, 801-397",3555,-8.08751788,-34.95726898
3,2194,"ESCOLA CARLÚCIO CASTANHO (ANTIGA ESCOLA MUNICIPAL UR-1)",Recife,"AV. PERNAMBUCO, S/N UR1","IBURA","718, 719, 720, 721, 722, 723, 724, 725, 726, 727, 728, 729, 730","718-206, 719-208, 720-210, 721-207, 722-206, 723-208, 724-214, 725-206, 726-207, 727-206, 728-205, 729-205, 730-204",2692,-8.121267,-34.94621743
3,1996,"ESCOLA DOM SEBASTIAO LEME (POLIVALENTE)",Recife,"AV. ENGENHO MURIBARA, S/N","UR 1 - IBURA","607, 608, 609, 610, 611, 612, 613, 614, 615, 616, 617, 618, 619, 620, 621, 622, 623","607-391, 608-391, 609-394, 610-393, 611-393, 612-396, 613-394, 614-394, 615-392, 616-394, 617-393, 618-395, 619-391, 620-393, 621-392, 622-393, 623-394",6683,-8.11468068,-34.94950087
3,1260,"ESCOLA EDWIGES DE SA PEREIRA",Recife,"RUA RIVADÁVIA GUERRA, 50","TEJIPIÓ","203, 204, 235, 237, 246, 276","203-231, 204-232, 235-227, 237-229, 246-227, 276-229",1375,-8.08991996,-34.95256022
3,1988,"ESCOLA LAGOA ENCANTADA",Recife,"RUA DR. MOACIR SALES, S/N","LAGOA ENCANTADA","588, 589, 590, 591, 592, 593, 594, 595, 596, 597, 598, 599, 600, 601, 602, 603, 604, 605, 606","588-388, 589-388, 590-391, 591-387, 592-388, 593-387, 594-387, 595-385, 596-386, 597-386, 598-386, 599-388, 600-385, 601-385, 602-386, 603-385, 604-386, 605-386, 606-386",7346,-8.122798,-34.95091593
3,1244,"ESCOLA MARCELINO CHAMPAGNAT",Recife,"RUA RIVADAVIA GUERRA ,   55","TEJIPIÓ","187, 188, 189, 190, 191, 192, 193, 194, 195, 196, 201, 202, 371","187-187, 188-192, 189-186, 190-187, 191-193, 192-188, 193-184, 194-188, 195-187, 196-196, 201-187, 202-188, 371-191",2454,-8.08972686,-34.95250521
3,2054,"ESCOLA MARIA SAMPAIO DE LUCENA",Recife,"AV. PERNAMBUCO, S/N","UR 1 - IBURA","667, 668, 669, 670, 671, 672, 673, 674, 675, 676, 677","667-396, 668-392, 669-395, 670-393, 671-392, 672-392, 673-391, 674-389, 675-391, 676-392, 677-392",4315,-8.12109221,-34.94618145
3,2178,"ESCOLA MISSIONÁRIO SÃO BENTO",Recife,"RUA CAPITÃO VICENTE CURADO","UR-4","797, 813","797-348, 813-251",599,-8.13158467,-34.94767403
3,2216,"ESCOLA MONSENHOR ALVARO NEGROMONTE",Recife,"RUA ONZE DE AGOSTO, SN","TEJIPIÓ","735, 736, 737, 738, 739, 740, 741, 742, 743, 744, 745, 746","735-395, 736-392, 737-392, 738-389, 739-392, 740-393, 741-393, 742-392, 743-388, 744-390, 745-390, 746-389",4695,-8.08083828,-34.96857744
3,2127,"ESCOLA MUNCIPAL JOSE MUCIO MONTEIRO",Recife,"AV. JOAO RIO BRANCO DE LIMA - UR - 12 , 125","IBURA","694, 695","694-392, 695-393",785,-8.12750986,-34.95304669
3,2267,"ESCOLA MUNICIPAL 27 DE NOVEMBRO",Recife,"RUA 21 DE ABRIL, 1120","UR 3 - IBURA","788, 789, 790, 791","788-391, 789-397, 790-393, 791-391",1572,-8.11157708,-34.95378358
3,2275,"ESCOLA MUNICIPAL ALTO DA BELA VISTA",Recife,"RUA ALTO DA BELA VISTA, N 338/369","TOTÓ","792, 793, 794, 817","792-376, 793-376, 794-369, 817-56",1177,-8.08480741,-34.96883462
3,2038,"ESCOLA MUNICIPAL CICERO FRANKLIN CORDEIRO",Recife,"RUA FELIPE DOS SANTOS - UR 05","IBURA","653, 654, 655, 656, 657, 658, 659","653-393, 654-396, 655-396, 656-396, 657-395, 658-397, 659-397",2770,-8.13595889,-34.95472997
3,2232,"ESCOLA MUNICIPAL CRISTIANO CORDEIRO",Recife,"AV. SANTOS, S/N","UR 2 - IBURA ALTO","748, 749, 750, 751, 752, 753, 754, 755, 756, 757","748-382, 749-381, 750-382, 751-383, 752-382, 753-383, 754-383, 755-379, 756-381, 757-381",3817,-8.11476328,-34.95385308
3,1325,"ESCOLA MUNICIPAL DE TEJIPIO",Recife,"RUA TUTOIA, 165","TEJIPIÓ","224, 225, 226, 227, 381","224-292, 225-292, 226-287, 227-289, 381-285",1445,-8.09213178,-34.96433095
3,2046,"ESCOLA MUNICIPAL DO SANCHO",Recife,"RUA JOÃO FERREIRA, 427, SANCHO","TEJIPIÓ","660, 661, 662, 663, 664, 665, 666","660-206, 661-208, 662-207, 663-204, 664-204, 665-206, 666-205",1440,-8.0906564,-34.96578607
3,2097,"ESCOLA MUNICIPAL FUTURO FELIZ",Recife,"RUA UBIRAJUBA, S/N","TRES CARNEIROS","684, 685, 686, 806","684-347, 685-345, 686-342, 806-277",1311,-8.12659045,-34.95567784
3,2151,"ESCOLA MUNICIPAL JARDIM MONTE VERDE",Recife,"AVENIDA CHAPADA DO ARARIPE, 92","MONTE VERDE - IBURA","697, 698, 699, 700, 701, 702, 703, 704, 705, 807","697-364, 698-366, 699-358, 700-363, 701-360, 702-362, 703-361, 704-362, 705-361, 807-360",3617,-8.12003534,-34.96008229
3,2089,"ESCOLA MUNICIPAL LAGOA ENCANTADA",Recife,"RUA DR. BENIGNO JORDÃO DE VASCONCELOS, S/N","LAGOA ENCANTADA","682, 683","682-395, 683-398",793,-8.11992152,-34.95018168
3,2119,"ESCOLA MUNICIPAL POETA PAULO BANDEIRA DA CRUZ",Recife,"RUA PANELAS, S/N UR2","UR 2 - IBURA ALTO","688, 689, 690, 691, 692, 693","688-349, 689-336, 690-339, 691-339, 692-346, 693-337",2046,-8.12182355,-34.95545278
3,2011,"ESCOLA MUNICIPAL PROF. MARIA DA PAZ BRANDAO ALVES",Recife,"RUA DA FELICIDADE,51","SANCHO","632, 633, 634, 635, 636, 637, 638, 639, 640, 641, 642, 717","632-359, 633-354, 634-355, 635-358, 636-355, 637-358, 638-361, 639-357, 640-358, 641-356, 642-352, 717-344",4267,-8.08239238,-34.96153418
3,2160,"ESCOLA MUNICIPAL VILA SESAMO",Recife,"VALE DO ITAJAÍ, 65","COHAB","706, 707, 708, 709, 710","706-400, 707-398, 708-393, 709-398, 710-397",1986,-8.13376554,-34.94999914
3,2348,"ESCOLA PADRE LEBRET",Recife,"AVENIDA ANDGRA DOS REIS","UR 2 - IBURA ALTO","758, 759, 760, 761, 762, 763, 764, 765, 766, 767, 768, 769, 798","758-342, 759-341, 760-343, 761-343, 762-342, 763-344, 764-344, 765-343, 766-348, 767-338, 768-346, 769-342, 798-341",4457,-8.1200325,-34.9545531
3,2003,"ESCOLA PROF. MARCOS DE BARROS FREIRE",Recife,"AV. ENGENHO BABILONIA                          SN","UR 3 - IBURA","624, 625, 626, 627, 628, 629, 630, 631","624-373, 625-371, 626-369, 627-371, 628-371, 629-368, 630-370, 631-376",2969,-8.11258614,-34.94765013
3,2240,"ESCOLA PROFESSOR JORDAO EMERENCIANO",Recife,"AV SANTAREM, S/N UR-2 IBURA","COHAB","770, 771, 772, 773, 774, 775, 776, 777, 778, 779, 780, 781, 782, 783, 784, 803, 810, 814, 816","770-389, 771-389, 772-386, 773-388, 774-387, 775-388, 776-384, 777-388, 778-385, 779-391, 780-388, 781-389, 782-387, 783-390, 784-389, 803-389, 810-389, 814-387, 816-384",7367,-8.11991893,-34.95444642
3,1520,"ESCOLA PROFESSORA OLINDINA ALVES SEMENTE",Recife,"RUA PAULO AFONSO , SN                               ","BARRO","378, 423, 434, 441, 453, 465, 474, 481, 486, 493","378-392, 423-392, 434-390, 441-389, 453-389, 465-392, 474-391, 481-391, 486-390, 493-387",3903,-8.08821537,-34.94246763
3,1970,"ESCOLA SENADOR ANTONIO FARIAS",Recife,"AVENIDA CAMPO VERDE, 415","TRES CARNEIROS","582, 583, 584, 585, 586, 587","582-390, 583-392, 584-390, 585-392, 586-392, 587-390",2346,-8.12678209,-34.95566037
3,1287,"ESCOLA SENADOR PAULO GUERRA",Recife,"AV. DR. JOSE RUFINO,   2993","TEJIPIÓ","42, 43, 44, 45, 46, 47, 48, 49, 215, 216, 217, 218, 219, 220, 304, 305, 309, 315, 383","42-212, 43-212, 44-212, 45-212, 46-216, 47-214, 48-213, 49-209, 215-213, 216-212, 217-211, 218-213, 219-214, 220-213, 304-213, 305-217, 309-216, 315-215, 383-212",4049,-8.09245552,-34.94983247
3,1961,"ESCOLA VILA DOS MILAGRES",Recife,"RUA NOSSA SENHORA DO CARMO","IBURA","577, 578, 579, 580, 581","577-387, 578-385, 579-378, 580-387, 581-382",1919,-8.11297613,-34.94605355
4,1325,"ATI - AGÊNCIA ESTADUAL DE TECNOLOGIA DA INFORMAÇÃO",Recife,"AV. RIO CAPIBARIBE, 147","SAO JOSE","130, 131, 132, 133, 134, 135, 136, 137, 138, 139","130-275, 131-276, 132-278, 133-279, 134-276, 135-278, 136-278, 137-277, 138-277, 139-276",2770,-8.0667271,-34.8836786
4,1694,"CASA DA AMIZADE",Recife,"RUA OTHON PARAÍSO, 132","TORREAO","335, 336, 337","335-241, 336-240, 337-240",721,-8.0397377,-34.8833764
4,1740,"CEMEI - CENTRO MUNICIPAL DE EDUCACAO INFANTIL MÃEZINHA DO COQUE",Recife,"RUA GUAPIRAMA, S/N","ILHA JOANA BEZERRA","128, 129, 170, 206, 218, 371","128-355, 129-357, 170-353, 206-349, 218-355, 371-352",2121,-8.0718635,-34.8998132
4,1589,"CENÁCULO ESPÍRITA CASA DE MARIA",Recife,"RUA MARQUÊS DE BAEPENDI, 219","CAMPO GRANDE","270, 271, 272","270-376, 271-374, 272-377",1127,-8.0272749,-34.8859324
4,1090,"CENTRO DE EDUCAÇÃO, TECNOLOGIA E CIDADANIA - CETEC- ANT CENTRO NOBREGA",Recife,"AV OLIVEIRA LIMA, 824","BOA VISTA","37, 38, 39, 40, 41, 42, 43, 44, 45, 46, 47","37-161, 38-158, 39-158, 40-154, 41-154, 42-155, 43-154, 44-158, 45-154, 46-156, 47-154",1716,-8.05737,-34.8872347
4,1716,"COLÉGIO DO SABER",Recife,"RUA FRANKLIN TÁVORA, 159","CAMPO GRANDE","348, 349, 350, 351, 381","348-380, 349-375, 350-374, 351-373, 381-50",1552,-8.0287002,-34.8843447
4,1686,"COLEGIO IMACULADO CORACAO DE MARIA",Recife,"RUA DR. MACHADO, 379","CAMPO GRANDE","332, 333, 334","332-391, 333-390, 334-396",1177,-8.0295959,-34.8828439
4,1724,"COLÉGIO JESUS CRUCIFICADO",Recife,"ESTRADA DE BELEM, 1164","CAMPO GRANDE","352, 353, 354, 355, 356, 357, 358, 359, 360, 361, 362, 363","352-394, 353-393, 354-389, 355-394, 356-393, 357-397, 358-394, 359-397, 360-393, 361-393, 362-392, 363-392",4721,-8.032209,-34.8815917
4,1120,"COLÉGIO SALESIANO SAGRADO CORAÇÃO",Recife,"RUA DOM BOSCO                                  551","BOA VISTA","20, 21, 22, 23, 32, 33, 34, 35, 36, 48, 49, 50, 51, 52, 53, 54, 55, 56, 57, 150","20-370, 21-355, 22-353, 23-355, 32-355, 33-354, 34-353, 35-352, 36-355, 48-354, 49-352, 50-353, 51-356, 52-354, 53-352, 54-352, 55-355, 56-355, 57-353, 150-355",7093,-8.0604739,-34.8933647
4,1392,"EREM OLIVEIRA LIMA",Recife,"RUA BARAO DE SAO BORJA, 347","BOA VISTA","195, 202, 208, 213, 220, 231","195-319, 202-320, 208-316, 213-315, 220-316, 231-322",1908,-8.0604935,-34.8908027
4,1376,"EREM POETA MANUEL BANDEIRA",Recife,"RUA MIGUEL DE CERVANTES, SN","ILHA DO LEITE","189, 194, 207, 216, 228, 236, 374","189-363, 194-348, 207-348, 216-349, 228-347, 236-349, 374-281",2385,-8.0657305,-34.8937969
4,1201,"EREM SIZENANDO SILVEIRA",Recife,"AVENIDA MÁRIO MELO, S/N","SANTO AMARO","1, 2, 3, 4, 5, 6, 7, 8","1-218, 2-222, 3-220, 4-218, 5-216, 6-221, 7-218, 8-224",1757,-8.0544782,-34.8817894
4,1520,"ESCOLA  MUNICIPAL PROFESSOR JOSUÉ DE CASTRO",Recife,"RUA MARTIN LUTHER KING, 368","ILHA DO LEITE","224, 230, 232, 233","224-370, 230-370, 232-374, 233-372",1486,-8.0694052,-34.899035
4,1171,"ESCOLA ANÍBAL FERNANDES",Recife,"RUA MARQUES DO POMBAL S/N","SANTO AMARO","75, 76, 77, 78, 79, 80, 81, 82, 102, 103, 104, 149","75-404, 76-395, 77-391, 78-392, 79-389, 80-388, 81-390, 82-391, 102-391, 103-388, 104-392, 149-394",4705,-8.0476244,-34.8813587
4,1490,"ESCOLA CONEGO ROCHAEL DE MEDEIROS",Recife,"AV. MÁRIO MELO, S/N","SANTO AMARO","107, 113, 114, 115, 116, 117","107-257, 113-263, 114-261, 115-261, 116-258, 117-260",1560,-8.0552189,-34.8799188
4,1406,"ESCOLA DE REFERÊNCIA EM ENSINO FUNDAMENTAL MONSENHOR LEONARDO DE BARRO",Recife,"RUA ARARIBA, S/N","SAO JOSE","196, 200, 204, 211, 229","196-379, 200-371, 204-370, 211-377, 229-374",1871,-8.073872,-34.8916216
4,1708,"ESCOLA DE REFERÊNCIA EM ENSINO MÉDIO CLÓVIS BEVILAQUA",Recife,"PRACA TERTULIANO FEITOSA SN","HIPODROMO","338, 339, 340, 341, 342, 343, 344, 345, 346, 347","338-386, 339-386, 340-390, 341-389, 342-386, 343-388, 344-388, 345-388, 346-385, 347-384",3870,-8.0329496,-34.8869866
4,1317,"ESCOLA DE REFERÊNCIA EM ENSINO MÉDIO JOAQUIM NABUCO",Recife,"RUA IMPERIAL, 1102","SAO JOSE","161, 162, 163, 168, 193, 219, 222, 373","161-378, 162-371, 163-372, 168-370, 193-370, 219-373, 222-372, 373-362",2968,-8.0749404,-34.8912595
4,1600,"ESCOLA DE REFERÊNCIA EM ENSINO MÉDIO NÓBREGA(ANTIGO OLIVIO MONTENEGRO)",Recife,"ESTRADA DE BELEM, 257","ENCRUZILHADA","284, 285, 286, 287, 288, 289, 290, 291, 292, 293, 294","284-379, 285-379, 286-379, 287-379, 288-376, 289-381, 290-379, 291-378, 292-378, 293-379, 294-380",4167,-8.036079,-34.8891592
4,1481,"ESCOLA DE REFERÊNCIA EM ENSINO MÉDIO SYLVIO RABELLO",Recife,"AV. MÁRIO MELO, S/N","SANTO AMARO","9, 93, 94, 95, 96, 97, 98, 99, 100, 101, 140, 141","9-181, 93-177, 94-180, 95-178, 96-183, 97-184, 98-184, 99-182, 100-182, 101-179, 140-184, 141-174",2168,-8.0546948,-34.8807426
4,1627,"ESCOLA EMBAIXADOR GILBERTO AMADO",Recife,"PRACA TERTULIANO FEITOSA ,SN","HIPODROMO","300, 301, 302, 303, 304, 305, 306","300-310, 301-310, 302-309, 303-310, 304-309, 305-316, 306-316",2180,-8.0327883,-34.8878349
4,1775,"ESCOLA ESPAÇO DINÂMICO",Recife,"R. CATULO DA PAIXÃO CEARENSE, 95","CAMPO GRANDE","380","380-18",18,0,0
4,1562,"ESCOLA ESTADUAL DOM CARLOS COELHO",Recife,"AV MARECHAL DEODORO, 626","CAMPO GRANDE","244, 245, 246, 247, 248, 249, 250, 251, 252, 253","244-359, 245-363, 246-363, 247-368, 248-358, 249-366, 250-363, 251-366, 252-361, 253-362",3629,-8.0360151,-34.8832729
4,1570,"ESCOLA ESTADUAL JARBAS PERNAMBUCANO",Recife,"RUA BARÃO DE TAMANDARÉ","CAJUEIRO","254, 255, 256, 257, 258, 259, 260, 261, 262, 263, 264, 265, 266, 267, 268, 269","254-366, 255-360, 256-360, 257-359, 258-362, 259-360, 260-360, 261-362, 262-362, 263-359, 264-360, 265-359, 266-364, 267-358, 268-358, 269-360",5769,-8.0106766,-34.8833191
4,1244,"ESCOLA ESTADUAL JOSÉ MARIA",Recife,"RUA TREZE DE MAIO SN","SANTO AMARO","83, 84, 85, 86, 108, 109, 110, 111, 155, 184, 188, 190, 191","83-337, 84-336, 85-340, 86-339, 108-338, 109-335, 110-339, 111-339, 155-341, 184-345, 188-337, 190-334, 191-336",4396,-8.0479681,-34.8805986
4,1660,"ESCOLA ESTADUAL SAO JUDAS TADEU",Recife,"RUA MARCILIO DIAS, 591","CAMPINA DO BARRETO","314, 315, 316, 317, 318, 319, 320, 321, 322, 323, 324, 325, 326, 327","314-427, 315-394, 316-396, 317-391, 318-393, 319-398, 320-396, 321-395, 322-395, 323-395, 324-397, 325-397, 326-390, 327-392",5556,-8.0208128,-34.8811931
4,1295,"ESCOLA LUIZ DELGADO",Recife,"RUA DO HOSPÍCIO, S/N  - EM FRENTE AO PARQUE TREZE DE MAIO","BOA VISTA","118, 119, 120, 121, 122, 382","118-369, 119-378, 120-368, 121-373, 122-363, 382-86",1937,-8.0557655,-34.8826629
4,1678,"ESCOLA MUNICIPAL ÁGUA FRIA",Recife,"RUA DOS CRAVEIROS, 441","CAMPINA DO BARRETO","328, 329, 330, 331","328-366, 329-367, 330-369, 331-361",1463,-8.0129146,-34.8810423
4,1783,"ESCOLA MUNICIPAL AGUA FRIA - ANEXO",Recife,"RUA CÔNEGO OLÍMPIO TORRES, S/N","CAMPINA DO BARRETO","377","377-44",44,0,0
4,1554,"ESCOLA MUNICIPAL CAMPINA DO BARRETO",Recife,"RUA VIRGÍLIO DE MELO FRANCO, 28-A","CAJUEIRO","237, 238, 239, 240, 241, 242, 243","237-291, 238-291, 239-293, 240-290, 241-289, 242-289, 243-291",2034,-8.009449,-34.8865471
4,1619,"ESCOLA MUNICIPAL COMPOSITOR CAPIBA (ANTIGO RADICAL COLÉGIO E CURSO)",Recife,"RUA OTHON PARAÍSO, 375","TORREAO","295, 296, 297, 298, 299","295-162, 296-162, 297-166, 298-163, 299-164",817,-8.0375476,-34.883751
4,1309,"ESCOLA MUNICIPAL DE TEMPO INTEGRAL JOSE DA COSTA PORTO",Recife,"RUA CABO EUTROPIO, SN","SAO JOSE","123, 124, 125, 126, 127, 209, 212, 221, 235, 375","123-386, 124-385, 125-387, 126-388, 127-386, 209-377, 212-382, 221-381, 235-385, 375-374",3831,-8.0720222,-34.900753
4,1597,"ESCOLA MUNICIPAL MARIO MELO",Recife,"RUA OLIVEIRA FONSECA ,SN","CAMPO GRANDE","273, 274, 275, 276, 277, 278, 279, 280, 281, 282, 283","273-363, 274-362, 275-360, 276-363, 277-362, 278-359, 279-361, 280-362, 281-360, 282-360, 283-362",3974,-8.0285576,-34.8799585
4,1651,"ESCOLA MUNICIPAL PROFESSORA  JANDIRA BOTELHO",Recife,"RUA FARIAS NEVES, S/N","CAMPO GRANDE","312, 313","312-397, 313-390",787,-8.0240682,-34.8780869
4,1643,"ESCOLA MUNICIPAL PROFESSORA HÉLIA MARIA PEREIRA",Recife,"RUA ALICE GOMES, 37","CAMPO GRANDE","309, 310, 311","309-305, 310-310, 311-310",925,-8.0367278,-34.8803119
4,1635,"ESCOLA MUNICIPAL SANTA CECILIA",Recife,"RUA ALICE GOMES, 49","CAMPO GRANDE","307, 308, 376","307-371, 308-365, 376-123",859,-8.0367796,-34.8805078
4,1538,"ESCOLA WALDEMAR DE OLIVEIRA",Recife,"AV. MÁRIO MELO, S/N","SANTO AMARO","105, 106, 112, 167","105-201, 106-207, 112-205, 167-208",821,-8.0549996,-34.8802025
4,1546,"ETE - ESCOLA TECNICA ESTADUAL - GINASIO PERNAMBUCANO",Recife,"AVENIDA CRUZ CABUGÁ, N 269","SANTO AMARO","197, 199, 201, 203, 210, 214, 223, 225, 226","197-314, 199-315, 201-313, 203-316, 210-313, 214-319, 223-313, 225-319, 226-316",2838,-8.0517981,-34.8801503
4,1163,"ETE - ESCOLA TÉCNICA ESTADUAL ALMIRANTE SOARES DUTRA",Recife,"PRACA ABREU E LIMA,SN","SANTO AMARO","64, 65, 66, 67, 68, 69, 70, 71, 72, 73, 74, 160, 185","64-309, 65-297, 66-305, 67-304, 68-303, 69-301, 70-306, 71-303, 72-304, 73-304, 74-308, 160-302, 185-305",3951,-8.047383,-34.8758951
4,1732,"PARÓQUIA NOSSA SENHORA DO BOM PARTO-ANT CENTRO PAROQUIAL CAMPO GRANDE",Recife,"ESTRADA DE BELEM, 1425","CAMPO GRANDE","364, 365, 366, 367, 368, 369","364-300, 365-299, 366-297, 367-296, 368-335, 369-301",1828,-8.0322568,-34.8791636
4,1759,"SENAC",Recife,"RUA DO POMBAL, 57","SANTO AMARO","87, 88, 89, 90, 91, 92, 379","87-359, 88-357, 89-357, 90-356, 91-363, 92-357, 379-110",2259,0,0
4,1112,"UNIBRA",Recife,"RUA JOAQUIM FELIPE   , 250","BOA VISTA","10, 11, 12, 13, 14, 15, 16, 17, 18, 19, 24, 25, 26, 27, 28, 29, 30, 31, 58, 59, 60, 61, 62, 63, 152, 157, 198, 205, 217, 378","10-161, 11-151, 12-151, 13-152, 14-151, 15-149, 16-151, 17-151, 18-151, 19-154, 24-149, 25-153, 26-152, 27-151, 28-150, 29-150, 30-151, 31-149, 58-352, 59-352, 60-359, 61-366, 62-350, 63-362, 152-157, 157-361, 198-243, 205-247, 217-256, 378-150",6282,-8.0527369,-34.8918406
5,1430,"APAE - ASSOCIAÇÃO DE PAIS E AMIGOS DOS EXCEPCIONAIS",Recife,"ESTRADA DO ARRAIAL, 4744","CASA AMARELA","1, 2, 3, 4, 5, 267","1-219, 2-221, 3-218, 4-217, 5-219, 267-220",1314,-8.02776,-34.92460167
5,1686,"CENTRO DE ATIVIDADES DOMÉSTICAS - CAD",Recife,"RUA FRANCISCO LACERDA, 440","VARZEA","428, 429, 430, 431, 432, 433","428-379, 429-381, 430-380, 431-384, 432-379, 433-381",2284,-8.05072622,-34.95859656
5,1660,"CENTRO DE CIÊNCIAS SOCIAIS APLICADAS - CCSA - UFPE",Recife,"AV. DOS ECONOMISTAS, S/N","CIDADE UNIVERSITARIA","409, 410, 411, 412, 413, 414, 415, 416, 417, 418, 419, 420, 421, 422","409-383, 410-385, 411-385, 412-383, 413-384, 414-383, 415-383, 416-386, 417-385, 418-384, 419-384, 420-383, 421-386, 422-384",5378,-8.04848665,-34.95092189
5,1783,"CENTRO DE CIÊNCIAS SOCIAIS APLICADAS - UFPE - VOTO EM TRÂNSITO",Recife,"AV. DOS ECONOMISTAS, S/N","CIDADE UNIVERSITARIA","509, 516, 517","509-0, 516-0, 517-0",0,-8.04902741,-34.95098851
5,1651,"CENTRO DE EDUCAÇÃO DA UFPE",Recife,"AV. ACADÊMICO HÉLIO RAMOS, S/N","CIDADE UNIVERSITARIA","401, 402, 403, 404, 405, 406, 407, 408","401-387, 402-390, 403-383, 404-386, 405-389, 406-389, 407-386, 408-383",3093,-8.04876065,-34.95326951
5,1465,"CENTRO DE ENSINO DE CIÊNCIAS AGRÁRIAS - CEAGRI - UFRPE",Recife,"RUA DOM MANUEL DE MEDEIROS, S/N","DOIS IRMAOS","275, 281, 285, 294, 510, 515","275-369, 281-367, 285-368, 294-366, 510-368, 515-369",2207,-8.017815,-34.944095
5,1236,"CENTRO DE ENSINO DE GRADUAÇÃO - CEGOE - UFRPE",Recife,"RUA DOM MANUEL DE MEDEIROS, S/N","DOIS IRMAOS","144, 147, 151, 158, 165, 181, 207, 220, 229, 238, 252","144-393, 147-394, 151-396, 158-390, 165-391, 181-390, 207-392, 220-394, 229-393, 238-392, 252-390",4315,-8.01834333,-34.95077833
5,1279,"CENTRO DE REABILITAÇÃO E EDUCAÇÃO ESPECIAL",Recife,"RUA CONSELHEIRO NABUCO, S/N","CASA AMARELA","16, 17, 18, 19, 20, 183, 202, 228","16-151, 17-151, 18-149, 19-150, 20-150, 183-172, 202-150, 228-184",1257,-8.02842167,-34.91835333
5,1473,"CENTRO ESCOLAR CAROCHINHA",Recife,"RUA DO CHACON, 245","CASA FORTE","169, 174, 198, 218, 255, 264, 266, 272, 276, 295","169-360, 174-361, 198-362, 218-359, 255-361, 264-362, 266-362, 272-361, 276-360, 295-362",3610,-8.03952833,-34.9199
5,1341,"CMEI - DONA CARMELITA MUNIZ DE ARAÚJO",Recife,"ESTRADA DA MUMBECA, 100, BOLA NA REDE","GUABIRABA","199, 200, 201, 260, 523","199-361, 200-368, 201-368, 260-370, 523-243",1710,-7.964845,-34.92313167
5,1830,"COLÉGIO ASM (ANTIGO SAGRADA FAMÍLIA)",Recife,"PRAÇA DE CASA FORTE, 52","CASA FORTE","30, 31, 32, 33, 34, 35, 36","30-370, 31-359, 32-374, 33-374, 34-368, 35-372, 36-368",2585,-8.032995,-34.9188788
5,1333,"COLÉGIO E CURSO - DESAFIO",Recife,"RUA PROFESSOR ANTONIO COELHO, 6O","CIDADE UNIVERSITARIA","188, 219, 246, 265, 282, 511","188-378, 219-372, 246-376, 265-377, 282-377, 511-374",2254,-8.03853,-34.94386667
5,1805,"COLÉGIO ETHOS",Recife,"RUA OLIVEIRA GÓES","POÇO DA PANELA","62, 63, 64, 137, 520","62-335, 63-334, 64-333, 137-334, 520-190",1526,-8.0388292,-34.9202832
5,1244,"COLÉGIO MOTIVO (ANTIGO MATER CHRISTI)",Recife,"AVENIDA DEZESSETE DE AGOSTO, 1872","CASA FORTE","179, 197, 216, 225, 232, 237, 245, 249, 254, 288","179-390, 197-388, 216-388, 225-389, 232-387, 237-389, 245-395, 249-388, 254-389, 288-389",3892,-8.03261333,-34.92307667
5,1066,"COLÉGIO MURAKAMI (ANTIGO NAP)",Recife,"ESTRADA DAS UBAIAS, 487","CASA FORTE","37, 38, 39, 40, 41, 65, 66, 67","37-372, 38-375, 39-371, 40-367, 41-374, 65-358, 66-371, 67-362",2950,-8.0323696,-34.9195133
5,1740,"CRECHE MUNICIPAL FLOR DO BAIRRO DA GUABIRABA",Recife,"RUA CASSITERITA, S/N","BREJO DA GUABIRABA","489, 490, 491, 513, 514","489-346, 490-357, 491-340, 513-326, 514-302",1671,-7.99314895,-34.93613745
5,1732,"DEPARTAMENTO DE HOTELARIA E TURISMO - UFPE",Recife,"AV. ACADÊMICO HÉLIO RAMOS, S/N","CIDADE UNIVERSITARIA","478, 479, 480, 481, 482, 483, 484, 485, 486, 487, 488","478-298, 479-295, 480-298, 481-301, 482-294, 483-296, 484-300, 485-296, 486-296, 487-293, 488-299",3266,-8.04956915,-34.95389165
5,1627,"EDUCANDÁRIO MAGALHÃES BASTOS",Recife,"RUA FRANCISCO LACERDA, SN","VARZEA","379, 380, 381, 382, 383, 384, 385, 386","379-386, 380-379, 381-389, 382-382, 383-387, 384-382, 385-384, 386-380",3069,-8.04696849,-34.95728518
5,1180,"EREM PROFESSOR CÂNDIDO DUARTE (PRÓX ABO ASS. BRA. ODONTOLOGIA)",Recife,"RUA DOIS IRMÃOS","APIPUCOS","59, 60, 61, 129, 139, 211, 257","59-366, 60-365, 61-366, 129-365, 139-363, 211-362, 257-364",2551,-8.020885,-34.93889
5,1562,"ESCOLA ERUNDINA NEGREIROS DE ARAUJO",Recife,"RUA ERUNDINA NEGREIROS DE ARAUJO SN","CASA AMARELA","349, 350, 351, 352, 353, 354, 355","349-369, 350-377, 351-375, 352-382, 353-375, 354-373, 355-374",2625,-8.00695833,-34.93628667
5,1023,"ESCOLA ESTADUAL DOM VITAL",Recife,"ESTRADA DO ARRAIAL, S/N","CASA AMARELA","6, 7, 8, 9, 10, 11, 12, 13, 14, 15","6-378, 7-376, 8-384, 9-387, 10-369, 11-376, 12-379, 13-369, 14-387, 15-376",3781,-8.026995,-34.91828333
5,1619,"ESCOLA ESTADUAL MARIA DA CONCEIÇÃO DO REGO BARROS LACERDA",Recife,"RUA VALE DO JAGUARIBE,  S/N","UR-7 VARZEA","365, 366, 367, 368, 369, 370, 371, 372, 373, 374, 375, 376, 377, 378","365-360, 366-358, 367-365, 368-371, 369-367, 370-371, 371-366, 372-358, 373-353, 374-363, 375-369, 376-370, 377-360, 378-364",5095,-8.03679923,-34.97601004
5,1694,"ESCOLA ESTADUAL PROFESSOR CÂNDIDO DUARTE",Recife,"PRAÇA PINTO DAMASIO, S/N","VARZEA","434, 435, 436, 518, 526","434-396, 435-395, 436-391, 518-397, 526-167",1746,-8.04790164,-34.95903161
5,1082,"ESCOLA ESTADUAL SILVA JARDIM",Recife,"AV. DEZESSETE DE AGOSTO, 2727 - PRAÇA DO MONTEIRO","MONTEIRO","47, 48, 49, 50, 51, 52, 53, 54, 55, 56, 57, 58, 132, 175, 204","47-329, 48-329, 49-329, 50-329, 51-329, 52-327, 53-328, 54-326, 55-329, 56-329, 57-329, 58-327, 132-328, 175-328, 204-328",4924,-8.02816167,-34.928145
5,1309,"ESCOLA MAURICIO DE NASSAU",Recife,"AV. DR. EURICO CHAVES, 677","CASA AMARELA","185, 231, 258, 277, 293","185-357, 231-354, 258-354, 277-355, 293-356",1776,-8.02278818,-34.92593426
5,1813,"ESCOLA MUNICIPAL ALTO DA GUABIRABA",Recife,"RUA PRES. COSTA E SILVA, 250","BREJO DA GUABIRABA","522","522-157",157,-7.991901,-34.9334445
5,1228,"ESCOLA MUNICIPAL CÉLIA ARRAES",Recife,"RUA JOSÉ NOYA, S/N","VARZEA","170, 173, 194, 217, 244","170-386, 173-388, 194-393, 217-383, 244-380",1930,-8.0390585,-34.95865155
5,1678,"ESCOLA MUNICIPAL DA GUABIRABA",Recife,"RUA CASSITERITA, 395-B","BREJO DA GUABIRABA","423, 424, 425, 426, 427","423-369, 424-373, 425-371, 426-371, 427-358",1842,-7.99353798,-34.93525553
5,1392,"ESCOLA MUNICIPAL DIVINO ESPÍRITO SANTO",Recife,"PRAÇA DA CAXANGÁ, 127","VARZEA","186, 193, 205, 210, 236, 241, 251, 263, 512, 524","186-388, 193-388, 205-383, 210-386, 236-388, 241-390, 251-398, 263-387, 512-389, 524-387",3884,-8.03085015,-34.95472056
5,1864,"ESCOLA MUNICIPAL NOVA MORADA",Recife,"RUA DEP. JOSÉ FRANCISCO DE MELO CAVALCANTE, 409","CAXANGA","527","527-91",91,0,0
5,1821,"ESCOLA MUNICIPAL PEDRO ALCÂNTARA",Recife,"RUA TRÊS MORROS, 950","CORREGO DO JENIPAPO","521","521-153",153,-8.0026311,-34.9376778
5,1635,"ESCOLA MUNICIPAL PROFESSOR JOÃO BATISTA LIPO NETO",Recife,"RUA AFONSO FERREIRA MAIA, S/N","VARZEA","387, 388, 389, 390, 519","387-377, 388-366, 389-370, 390-366, 519-164",1643,-8.03564373,-34.99002585
5,1767,"ESCOLA MUNICIPAL PROFESSOR JOÃO FRANCISCO DE SOUZA",Recife,"RUA EXPEDICIONÁRIO JORGE DA COSTA LIMA, 31","UR-7 VARZEA","502, 503, 504, 505, 506, 507, 525","502-384, 503-383, 504-387, 505-388, 506-381, 507-381, 525-110",2414,-8.037081,-34.97336074
5,1104,"ESCOLA MUNICIPAL PROFESSOR NILO PEREIRA",Recife,"ESTRADA DO ARRAIAL, 4900","CASA AMARELA","143, 152, 157, 161, 182, 234","143-256, 152-254, 157-254, 161-251, 182-252, 234-252",1519,-8.02764167,-34.92552667
5,1252,"ESCOLA MUNICIPAL ZUMBI DOS PALMARES",Recife,"RUA ENGENHEIRO VASCONCELOS BITTENCOURT, 35","BRASILIT","178, 190, 215, 233, 508","178-384, 190-388, 215-386, 233-381, 508-388",1927,-8.04080939,-34.95187514
5,1139,"ESCOLA OLINTO VICTOR",Recife,"AV. AFONSO OLINDENSE, 153","VARZEA","84, 85, 86, 87, 88, 89, 90, 149, 209","84-380, 85-382, 86-375, 87-382, 88-376, 89-382, 90-384, 149-387, 209-383",3431,-8.03259116,-34.95563879
5,1643,"ESCOLA SAO CRISTOVAO",Recife,"RUA CASSITERITA, 395-A","BREJO DA GUABIRABA","391, 392, 393, 394, 395, 396, 397, 398, 399, 400","391-396, 392-397, 393-398, 394-396, 395-396, 396-395, 397-396, 398-397, 399-394, 400-394",3959,-7.99371049,-34.93556881
5,1325,"ESCOLA SÃO MIGUEL",Recife,"SEGUNDA TRAVESSA DA RUA DO SIRIJI,  S/N, ALTO DO MANDU","CASA AMARELA","184, 222, 261, 278, 291","184-368, 222-367, 261-364, 278-368, 291-363",1830,-8.02422959,-34.92917646
5,1724,"ESCOLA SENADOR NOVAES FILHO",Recife,"RUA DONA MARIA LACERDA, S/N","VARZEA","464, 465, 466, 467, 468, 469, 470, 471, 472, 473, 474, 475, 476, 477","464-358, 465-360, 466-353, 467-353, 468-354, 469-344, 470-347, 471-353, 472-344, 473-345, 474-352, 475-354, 476-359, 477-354",4930,-8.0484036,-34.96185037
5,1759,"ESCOLA TOME GIBSON",Recife,"AV. VEREADOR OTACILIO DE AZEVEDO, S/N","GUABIRABA","492, 493, 494, 495, 496, 497, 498, 499, 500, 501","492-368, 493-375, 494-378, 495-379, 496-386, 497-376, 498-376, 499-374, 500-373, 501-380",3765,-7.99211047,-34.93544565
5,1708,"INSTITUTO SANTA MARIA MAZZARELLO - I",Recife,"AV. AFONSO OLINDENSE, 1553","VARZEA","437, 438, 439, 440, 441, 442, 443, 444, 445, 446, 447, 448, 449, 450, 451","437-384, 438-383, 439-384, 440-378, 441-375, 442-378, 443-382, 444-378, 445-387, 446-376, 447-383, 448-384, 449-377, 450-384, 451-380",5713,-8.04464218,-34.95898251
5,1716,"INSTITUTO SANTA MARIA MAZZARELLO - II",Recife,"AV. AFONSO OLINDENSE, 1667","VARZEA","452, 453, 454, 455, 456, 457, 458, 459, 460, 461, 462, 463","452-375, 453-391, 454-386, 455-390, 456-390, 457-384, 458-386, 459-388, 460-380, 461-385, 462-390, 463-398",4643,-8.04545336,-34.95929206
6,1350,"ASSOC. DOS AUDITORES DO TESOURO ESTADUAL",Recife,"AV. VER. OTACILIO DE AZEVEDO, S/N","NOVA DESCOBERTA","212, 213, 214, 215, 216, 236, 268, 269, 273","212-334, 213-335, 214-335, 215-331, 216-335, 236-336, 268-335, 269-334, 273-331",3006,-8.0035653,-34.9178564
6,1368,"ASSOC. EVANG. LUTERANA DE EDUC. ESPECIAL",Recife,"RUA DES. MOTA JUNIOR, 59","CASA AMARELA","259, 263","259-287, 263-294",581,-8.0260939,-34.911044
6,1767,"CERVAC (CENTRO DE REABILITAÇÃO E VALORIZAÇÃO DA CRIANÇA)",Recife,"RUA MORRO DA CONCEIÇÃO","MORRO DA CONCEICAO","201, 254, 480","201-368, 254-372, 480-322",1062,-8.0203395,-34.9130157
6,1724,"CMEI (MÉRCIA MARIA BEZERRA COSTA)",Recife,"AV. VEREADOR OTACÍLIO DE AZEVEDO, 1030","NOVA DESCOBERTA","382, 383, 384, 385, 386, 387, 388, 389","382-326, 383-318, 384-322, 385-319, 386-324, 387-315, 388-322, 389-318",2564,-8.005149,-34.9154638
6,1619,"COLÉGIO APOIO",Recife,"RUA CONSELHEIRO NABUCO, 44","CASA AMARELA","72, 73, 74, 235, 237, 238, 434, 435, 436, 437","72-347, 73-346, 74-345, 235-348, 237-349, 238-349, 434-347, 435-349, 436-347, 437-349",3476,-8.0303588,-34.9143646
6,1805,"COLEGIO MADRE DE DEUS CAMPUS IV",Recife,"ESTRADA DO ARRAIAL, N 3460","CASA AMARELA","332, 340, 343, 344, 347, 349, 351, 358, 359, 361, 362","332-338, 340-335, 343-338, 344-334, 347-336, 349-337, 351-337, 358-335, 359-337, 361-335, 362-338",3700,-8.0277057,-34.9132099
6,1716,"COLÉGIO REINO MÁGICO",Recife,"ESTRADA DO ARRAIAL, 2949","CASA AMARELA","451, 452, 453, 454, 455, 456, 457, 458","451-210, 452-210, 453-212, 454-210, 455-210, 456-211, 457-210, 458-211",1684,-8.0290127,-34.9087953
6,1023,"COLEGIO SANTA CATARINA",Recife,"ESTRADA DO ARRAIAL, 2740","CASA AMARELA","8, 9, 10, 11, 12, 13, 14, 15, 16, 17, 18, 19, 20, 21","8-363, 9-364, 10-362, 11-361, 12-363, 13-364, 14-363, 15-361, 16-364, 17-364, 18-364, 19-364, 20-363, 21-369",5089,-8.0304454,-34.9075277
6,1740,"EREM POMPÉIA CAMPOS",Recife,"AV. NORTE MIGUEL DE ARRAES DE ALENCAR","MACAXEIRA","122, 123, 233, 240, 357","122-374, 123-369, 233-371, 240-370, 357-373",1857,-8.0149927,-34.9314343
6,1562,"ESCOLA CORONEL OTHON",Recife,"RUA IDA, S/N","MACAXEIRA","369, 370, 371, 372, 373, 374, 375, 376, 377, 378, 379, 380, 381","369-399, 370-392, 371-394, 372-391, 373-392, 374-394, 375-389, 376-390, 377-390, 378-390, 379-392, 380-393, 381-390",5096,-8.0159375,-34.9283457
6,1147,"ESCOLA DE PRIMEIRO GRAU ADERBAL GALVAO",Recife,"RUA VASCO DA GAMA, SN","VASCO DA GAMA","257, 262, 270, 315, 321","257-397, 262-399, 270-399, 315-400, 321-399",1994,-8.0173273,-34.921496
6,1031,"ESCOLA ESTADUAL AGEU MAGALHAES",Recife,"ESTRADA DO ARRAIAL, 3208","CASA AMARELA","22, 23, 24, 25, 26, 27, 226, 227, 228","22-314, 23-312, 24-312, 25-312, 26-311, 27-309, 226-312, 227-314, 228-310",2806,-8.028025,-34.9104788
6,1597,"ESCOLA ESTADUAL ALVARO LINS",Recife,"AV. VER. OTACILIO DE AZEVEDO, SN","NOVA DESCOBERTA","401, 402, 403, 404, 405, 406, 407, 408, 409, 410, 411, 412, 413, 414, 415, 416, 417, 418, 419","401-390, 402-394, 403-389, 404-392, 405-392, 406-393, 407-391, 408-389, 409-389, 410-389, 411-389, 412-390, 413-389, 414-387, 415-387, 416-390, 417-389, 418-387, 419-417",7433,-7.9996364,-34.9228613
6,1120,"ESCOLA ESTADUAL CLOTILDE DE OLIVEIRA",Recife,"AV NORTE, 6760","NOVA DESCOBERTA","111, 112, 113, 114, 115, 116, 117, 118, 119, 120, 121","111-394, 112-394, 113-393, 114-421, 115-394, 116-394, 117-393, 118-395, 119-396, 120-396, 121-393",4363,-8.0199265,-34.9258204
6,1040,"ESCOLA ESTADUAL DOM BOSCO",Recife,"ESTRADA DO ARRAIAL, 3208","CASA AMARELA","28, 29, 30, 31, 32, 33, 34, 35, 36, 37, 38, 39","28-364, 29-361, 30-361, 31-366, 32-359, 33-361, 34-362, 35-364, 36-360, 37-365, 38-361, 39-360",4344,-8.028214,-34.9107212
6,1058,"ESCOLA ESTADUAL MATIAS DE ALBUQUERQUE",Recife,"RUA FERNANDO DE SOUSA CAETE, SN           ","CASA AMARELA","40, 41, 42, 43, 44, 45","40-343, 41-345, 42-345, 43-346, 44-343, 45-343",2065,-8.0238447,-34.9134947
6,1066,"ESCOLA GOV. CARLOS DE LIMA CAVALCANTI",Recife,"RUA DES MOTA JUNIOR, 120","CASA AMARELA","46, 47, 48, 49, 50, 51, 52, 53, 54, 55, 56, 57, 284, 303, 307","46-246, 47-245, 48-241, 49-245, 50-243, 51-244, 52-254, 53-244, 54-241, 55-244, 56-244, 57-244, 284-255, 303-246, 307-268",3704,-8.0263212,-34.9108286
6,1554,"ESCOLA MARIA AMÁLIA",Recife,"AVENIDA NORTE, 7750","MACAXEIRA","364, 365, 366, 367, 368, 479","364-369, 365-374, 366-373, 367-374, 368-372, 479-370",2232,-8.013778,-34.9313705
6,1678,"ESCOLA MUNICIPAL ABEL GUEIROS",Recife,"AV. NORTE, 7696","MACAXEIRA","459, 460, 461, 462, 463","459-318, 460-317, 461-319, 462-316, 463-313",1583,-8.0147192,-34.9313208
6,1520,"ESCOLA MUNICIPAL CHICO SCIENCE",Recife,"RUA CATIGUÁ, 112","VASCO DA GAMA","312, 316, 326, 363","312-294, 316-288, 326-222, 363-197",1001,-8.0129886,-34.920726
6,1635,"ESCOLA MUNICIPAL DE CASA AMARELA",Recife,"CORREGO DA AREIA,  287","NOVA DESCOBERTA","439, 440, 441, 442","439-388, 440-386, 441-389, 442-390",1553,-8.0007059,-34.9259155
6,1783,"ESCOLA MUNICIPAL JÚLIO VICENTE ALVES DE ARAÚJO",Recife,"RUA MORRO DA CONCEIÇÃO, N 468","MORRO DA CONCEICAO","199, 200","199-393, 200-392",785,-8.0192239,-34.9149331
6,1155,"ESCOLA MUNICIPAL PROF ALMERINDA UMBELINO DE BARROS",Recife,"RUA VASCO DA GAMA SN","VASCO DA GAMA","148, 149, 150, 151, 152, 153, 154, 155, 156, 157, 158","148-339, 149-340, 150-340, 151-340, 152-341, 153-336, 154-339, 155-340, 156-338, 157-336, 158-338",3727,-8.0100494,-34.9209206
6,1694,"ESCOLA MUNICIPAL PROF. MAURO MOTA",Recife,"ALTO DA BRASILEIRA, S/N","NOVA DESCOBERTA","468, 469, 470, 471, 472, 473, 474, 475","468-396, 469-389, 470-391, 471-386, 472-384, 473-388, 474-387, 475-386",3107,-8.000239,-34.9309263
6,1465,"ESCOLA MUNICIPAL ROZEMAR DE MACEDO LIMA",Recife,"AV. NORTE, 5400","CASA AMARELA","330, 331, 341, 353, 355","330-164, 331-290, 341-291, 353-193, 355-191",1129,-8.0230309,-34.9133875
6,1511,"ESCOLA MUNICIPAL SANTA MARIA GORETTI",Recife,"RUA SANTA MARIA GORETTI, 300","VASCO DA GAMA","124, 125, 241, 255, 356, 360","124-264, 125-259, 241-259, 255-257, 356-291, 360-258",1588,-8.0112391,-34.9182972
6,1600,"ESCOLA NADIR COLACO",Recife,"RUA IDA, S/N","MACAXEIRA","420, 421, 422, 423, 424, 425, 426, 427, 428, 429, 430, 431, 432, 433","420-376, 421-381, 422-374, 423-378, 424-379, 425-378, 426-379, 427-380, 428-379, 429-377, 430-378, 431-376, 432-377, 433-374",5286,-8.0171853,-34.9286164
6,1082,"ESCOLA PADRE MACHADO",Recife,"RUA NEREU GUERRA,  92","CASA AMARELA","64, 65, 66, 67, 68, 69, 70, 71, 221, 279, 301, 319, 322, 325, 337","64-304, 65-310, 66-307, 67-304, 68-307, 69-306, 70-301, 71-305, 221-303, 279-308, 301-306, 319-303, 322-306, 325-312, 337-301",4583,-8.0260547,-34.9135129
6,1651,"ESCOLA POETA JOAQUIM CARDOSO",Recife,"RUA CORREGO DA AREIA , S/N","NOVA DESCOBERTA","448, 449, 450","448-395, 449-395, 450-403",1193,-8.001363,-34.9310164
6,1406,"ESCOLA PROFISSIONALIZANTE DOM BOSCO",Recife,"ESTRADA DO ARRAIAL, 2900","CASA AMARELA","313, 323, 328, 333","313-335, 323-335, 328-251, 333-337",1258,-8.0293758,-34.9084521
6,1210,"ESCOLA REUNIDA PADRE JOAO BARBOSA",Recife,"PRACA DO MORRO DA CONCEICAO, S/N","MORRO DA CONCEICAO","173, 174, 175, 239","173-400, 174-398, 175-394, 239-396",1588,-8.0189771,-34.9160131
6,1589,"ESCOLA ROTARY DE NOVA DESCOBERTA",Recife,"AVENIDA VER. OTACILIO DE AZEVEDO, S/N","NOVA DESCOBERTA","390, 391, 392, 393, 394, 395, 396, 397, 398, 399, 400","390-393, 391-392, 392-393, 393-389, 394-391, 395-391, 396-392, 397-393, 398-391, 399-391, 400-399",4315,-7.9990845,-34.9238316
6,1686,"ESCOLA TÉCNICA ESTADUAL MIGUEL BATISTA",Recife,"AVENIDA NORTE, 7487","MACAXEIRA","438, 464, 465, 466, 467, 478","438-357, 464-353, 465-355, 466-355, 467-358, 478-355",2133,-8.0142622,-34.9315337
6,1341,"ESCOLA TREZE DE MAIO - GILBERTO FREIRE",Recife,"RUA TREZE DE MAIO, SN","VASCO DA GAMA","203, 204, 205, 206, 207, 208, 209, 210, 211","203-388, 204-386, 205-387, 206-385, 207-388, 208-390, 209-388, 210-386, 211-389",3487,-8.0127213,-34.9231998
6,1775,"ESCOLA VILA SEZAMO",Recife,"RUA DA HARMONIA, 566","CASA AMARELA","260, 264, 265, 304, 308, 310","260-341, 264-341, 265-342, 304-338, 308-342, 310-342",2046,-8.0286721,-34.9144157
6,1643,"GRUPO ESCOLAR MOACIR DE ALBUQUERQUE",Recife,"RUA CORREGO DA AREIA S/N                 ","NOVA DESCOBERTA","443, 444, 445, 446, 447","443-397, 444-396, 445-395, 446-394, 447-395",1977,-8.0016097,-34.925288
6,1791,"SECRETARIA EXECUTIVA DE COMÉRCIO POPULAR- SECPOP",Recife,"RUA FERNANDO DE SOUZA CAETÉ, S/N","CASA AMARELA","339, 346, 348, 350","339-317, 346-329, 348-309, 350-319",1274,-8.0232201,-34.9149842
6,1163,"SESI",Recife,"RUA VASCO DA GAMA, SN","VASCO DA GAMA","159, 160, 161, 162, 163, 164, 165, 166, 167, 168, 169, 170, 171, 172","159-393, 160-392, 161-391, 162-393, 163-390, 164-394, 165-390, 166-392, 167-385, 168-391, 169-390, 170-392, 171-389, 172-392",5474,-8.0189622,-34.9213001
7,1473,"CAIC/TORRE-ESCOLA CREUZA BARRETO DORNELAS CÂMARA",Recife,"RUA CANTORA CLARA NUNES, S/N","TORRE","306, 307, 315, 320, 330, 338, 366, 375","306-382, 307-386, 315-388, 320-387, 330-385, 338-386, 366-385, 375-384",3083,-8.04485338,-34.91694771
7,1490,"CECOSNE",Recife,"RUA JOSÉ OSÓRIO, N 124","MADALENA","174, 175, 176, 177, 178, 179, 180, 181, 182, 183, 331, 368, 371, 373","174-393, 175-391, 176-394, 177-393, 178-394, 179-394, 180-392, 181-395, 182-392, 183-392, 331-392, 368-393, 371-397, 373-391",5503,-8.05316474,-34.90553639
7,1538,"CENTRO DE FORMAÇÃO DE EDUCADORES PROFESSOR PAULO FREIRE",Recife,"RUA REAL DA TORRE, N 299","MADALENA","329, 335, 339, 343, 348, 355, 357, 360, 458, 463","329-391, 335-392, 339-392, 343-390, 348-391, 355-398, 357-392, 360-391, 458-390, 463-390",3917,-8.05408148,-34.90943556
7,1708,"CFI - COLÉGIO DE FORMAÇÃO INTEGRAL",Recife,"AVENIDA CAXANGÁ, 460","MADALENA","304, 308, 313, 318, 323, 326, 345, 349","304-373, 308-376, 313-378, 318-374, 323-376, 326-377, 345-373, 349-378",3005,-8.0547694,-34.9129511
7,1694,"CMEI DARCY RIBEIRO",Recife,"RUA ODETE MONTEIRO, 450","CORDEIRO","24, 25, 26, 27, 231","24-376, 25-373, 26-375, 27-374, 231-371",1869,-8.0461834,-34.92055
7,1570,"COLÉGIO E CURSO GGE (BENFICA)",Recife,"RUA BENFICA, N 286/314","MADALENA","376, 377, 378, 379, 380, 381, 382, 383, 384, 385, 386","376-237, 377-238, 378-236, 379-237, 380-236, 381-235, 382-235, 383-236, 384-235, 385-237, 386-235",2597,-8.05917918,-34.90186883
7,1333,"COLÉGIO ELO (ANTIGO INSTITUTO HELENA LUBIENSKA)",Recife,"RUA PARAGUASSU, S/N","ZUMBI","20, 21, 32, 33, 34, 46, 47, 196, 201, 208, 209, 214, 222, 265, 266, 272","20-360, 21-360, 32-360, 33-358, 34-359, 46-360, 47-361, 196-361, 201-359, 208-361, 209-357, 214-364, 222-361, 265-358, 266-368, 272-366",5773,-8.0495124,-34.91730727
7,1430,"COLÉGIO EQUIPE",Recife,"RUA DEMÓSTENES DE OLINDA, N 121","MADALENA","288, 294, 300, 302, 310, 316, 322, 327, 347, 468","288-384, 294-392, 300-387, 302-389, 310-386, 316-381, 322-390, 327-414, 347-393, 468-185",3701,-8.04987881,-34.90551491
7,1651,"COLÉGIO EQUIPE (ANEXO I)",Recife,"RUA DEMÓSTENES DE OLINDA, N 138","MADALENA","461, 465","461-400, 465-400",800,-8.0497014,-34.9054182
7,1716,"COLÉGIO EQUIPE (ANEXO II)",Recife,"RUA DEMÓSTENES DE OLINDA, N 152","MADALENA","361, 364","361-396, 364-395",791,-8.0498842,-34.9052151
7,1210,"COLÉGIO JOAQUIM TÁVORA",Recife,"RUA REAL DA TORRE, S/N","MADALENA","141, 142, 143, 144, 145, 146, 151, 152, 153, 199, 234, 285, 289","141-387, 142-389, 143-387, 144-390, 145-388, 146-387, 151-385, 152-389, 153-383, 199-384, 234-386, 285-388, 289-386",5029,-8.0553556,-34.90892749
7,1309,"COLÉGIO SOUZA LEÃO",Recife,"RUA RONDÔNIA, N 46","CORDEIRO","184, 185, 186, 187, 188, 189, 190, 191, 346, 352","184-395, 185-391, 186-395, 187-391, 188-393, 189-391, 190-393, 191-393, 346-391, 352-414",3947,-8.05418814,-34.92034205
7,1643,"CRECHE MUNICIPAL CASINHA AZUL",Recife,"RUA SÃO MATEUS, S/N","IPUTINGA","370, 459, 464","370-397, 459-396, 464-397",1190,-8.0300517,-34.9341829
7,1732,"CRECHE MUNICIPAL MENINO JESUS DA BOMBA GRANDE",Recife,"RUA NOSSA SENHORA DA SAÚDE, N 669","CORDEIRO","321, 460","321-382, 460-390",772,-8.0419163,-34.9281461
7,1724,"CRECHE MUNICIPAL SÍTIO DO CARDOSO",Recife,"RUA PADRE LANDIM, N  89","TORRE","163, 164, 165, 241, 276","163-379, 164-378, 165-381, 241-387, 276-374",1899,-8.0493045,-34.9123229
7,1511,"ESCOLA AVENTURAS DO PINÓQUIO",Recife,"RUA PADRE DIAS MARTINS, N 201","ZUMBI","195, 251, 334","195-395, 251-395, 334-396",1186,-8.05481434,-34.91932557
7,1619,"ESCOLA BARROS CARVALHO",Recife,"RUA HONÓRIO CORREIA, N 167","CORDEIRO","417, 418, 419, 420, 421, 422, 423, 424, 425, 426, 427, 428, 429","417-351, 418-349, 419-347, 420-349, 421-349, 422-349, 423-345, 424-347, 425-348, 426-350, 427-351, 428-345, 429-346",4526,-8.05244668,-34.92126302
7,1376,"ESCOLA JOAQUIM XAVIER DE BRITO",Recife,"RUA CORDISLÂNDIA, N 1120","IPUTINGA","102, 103, 104, 192, 197, 206, 221, 293, 299","102-393, 103-397, 104-399, 192-396, 197-394, 206-397, 221-397, 293-395, 299-412",3580,-8.04154508,-34.93131484
7,1279,"ESCOLA MACIEL PINHEIRO",Recife,"PRAÇA PROFESSOR BARRETO CAMPÊLO, S/N","TORRE","166, 167, 168, 198, 203, 264","166-396, 167-400, 168-397, 198-398, 203-397, 264-397",2385,-8.0467114,-34.9134651
7,1457,"ESCOLA MARTINS JÚNIOR",Recife,"RUA PADRE JOSÉ REGUEIRA, S/N","TORRE","286, 291, 296, 298, 301","286-396, 291-397, 296-397, 298-391, 301-394",1975,-8.04755094,-34.91321511
7,1449,"ESCOLA MUNICIPAL DA IPUTINGA",Recife,"RUA CORONEL FERNANDO FURTADO, N 479","IPUTINGA","215, 216, 217, 218, 287, 297, 303, 309, 312, 317, 319, 467","215-372, 216-370, 217-370, 218-376, 287-369, 297-374, 303-365, 309-359, 312-368, 317-367, 319-370, 467-290",4350,-8.04185265,-34.92838621
7,1015,"ESCOLA MUNICIPAL DARCY RIBEIRO",Recife,"RUA ODETE MONTEIRO, N 384","CORDEIRO","1, 2, 3, 4, 5, 6, 7, 8, 22, 23, 29, 48, 49, 52, 53, 54","1-332, 2-331, 3-339, 4-332, 5-332, 6-333, 7-336, 8-332, 22-327, 23-331, 29-373, 48-379, 49-374, 52-376, 53-371, 54-376",5574,-8.04610127,-34.92063457
7,1171,"ESCOLA MUNICIPAL DINÁ DE OLIVEIRA",Recife,"RUA SAO MATEUS, S/N","IPUTINGA","245, 246, 250, 253, 258, 261, 273, 274, 295, 305, 311, 324, 328, 466","245-397, 246-397, 250-395, 253-396, 258-393, 261-395, 273-397, 274-413, 295-395, 305-433, 311-395, 324-394, 328-399, 466-393",5592,-8.03024895,-34.93461503
7,1546,"ESCOLA MUNICIPAL EBENEZER GUEIROS",Recife,"RUA DR. ALUÍSIO BALTAR, N 69","IPUTINGA","333, 336, 337, 340, 342, 351, 455","333-388, 336-390, 337-388, 340-387, 342-391, 351-394, 455-388",2726,-8.0371194,-34.93297557
7,1554,"ESCOLA MUNICIPAL JOÃO XXIII",Recife,"ESTRADA DO CAIARA, N 350","IPUTINGA","350, 353, 354, 356, 358, 359, 365, 369","350-381, 353-382, 354-384, 356-381, 358-386, 359-385, 365-385, 369-384",3068,-8.04167202,-34.93051766
7,1600,"ESCOLA MUNICIPAL MÉRCIA DE ALBUQUERQUE FERREIRA",Recife,"RUA TABAIARES, N 182","ILHA DO RETIRO","414, 415, 416, 457","414-337, 415-255, 416-335, 457-253",1180,-8.06556128,-34.9063465
7,1562,"ESCOLA MUNICIPAL PAROQUIAL CRISTO REI",Recife,"RUA DOM MANOEL DA COSTA, S/N","TORRE","362, 367, 456","362-392, 367-395, 456-394",1181,-8.0477988,-34.91247928
7,1660,"ESCOLA MUNICIPAL SÃO DOMINGOS",Recife,"RUA SÃO MATEUS, 364","IPUTINGA","292, 462","292-398, 462-396",794,-8.0384917,-34.9359089
7,1481,"ESCOLA MUNICIPAL VILA SANTA LUZIA",Recife,"RUA ELIZEU CAVALCANTI, N 52","CORDEIRO","314, 325, 341, 363, 372","314-311, 325-308, 341-309, 363-311, 372-312",1551,-8.0493728,-34.92116221
7,1155,"ESCOLA PADRE DEHON",Recife,"AVENIDA CAXANGÁ, N 3560","IPUTINGA","105, 106, 107, 108, 109, 110, 111, 112, 113, 114, 284, 290","105-394, 106-392, 107-393, 108-394, 109-392, 110-395, 111-395, 112-396, 113-394, 114-393, 284-407, 290-391",4736,-8.04126291,-34.93753573
7,1236,"ESCOLA POLITÉCNICA",Recife,"RUA BENEDITO MONTEIRO, N 50","MADALENA","135, 136, 137, 138, 139, 140, 147","135-321, 136-317, 137-319, 138-319, 139-318, 140-318, 147-317",2229,-8.05914924,-34.90366192
7,1589,"FACULDADE ESTÁCIO (ANTIGA FIR)",Recife,"AV. ENG. ABDIAS DE CARVALHO, N 1678","MADALENA","387, 388, 390, 392, 394, 396, 398, 400, 402, 404, 406, 408, 410, 412","387-280, 388-279, 390-279, 392-277, 394-279, 396-277, 398-280, 400-282, 402-278, 404-280, 406-280, 408-278, 410-297, 412-278",3924,-8.06229953,-34.9167451
7,1503,"FACULDADE SANTA HELENA",Recife,"AV. CAXANGÁ, N 990","MADALENA","169, 170, 171, 172, 173, 204, 213, 219, 230, 332, 374","169-346, 170-345, 171-351, 172-344, 173-342, 204-340, 213-343, 219-339, 230-344, 332-345, 374-341",3780,-8.05241645,-34.91720721
7,1740,"FCAP - FACULDADE DE CIÊNCIAS DA ADMINISTRAÇÃO DE PERNAMBUCO",Recife,"AV. SPORT CLUBE DO RECIFE, N 252","MADALENA","148, 263, 279","148-317, 263-317, 279-320",954,-8.0611189,-34.9029219
7,1627,"INSTITUTO BLUE DE EDUCACAO E CULTURA - BLUE SCHOOL (CONECTA)",Recife,"RUA JOSÉ MÚCIO MONTEIRO, 157","MADALENA","430, 431, 432, 433, 434, 435, 436, 437, 438, 439, 440, 441, 442, 443, 444, 445, 446, 447, 448, 449, 450, 451, 452, 453, 454","430-218, 431-214, 432-213, 433-213, 434-217, 435-218, 436-216, 437-217, 438-218, 439-214, 440-219, 441-222, 442-214, 443-214, 444-218, 445-215, 446-214, 447-210, 448-214, 449-221, 450-213, 451-205, 452-211, 453-219, 454-259",5426,-8.06007609,-34.90191127
7,1090,"PARQUE DE EXPOSIÇÃO DE ANIMAIS DO CORDEIRO",Recife,"RUA COSTA MAIA, 3","CORDEIRO","28, 50, 51, 55, 56, 259","28-399, 50-398, 51-393, 55-395, 56-397, 259-417",2399,-8.0472902,-34.9267399
7,1678,"PERPART",Recife,"RUA DR. JOÃO LACERDA, 395","CORDEIRO","57, 58, 59, 60, 86, 87, 283","57-365, 58-365, 59-369, 60-366, 86-361, 87-366, 283-366",2558,-8.0460748,-34.9223623
8,1767,"ANTIGA SEDE DO TRE/PE",Recife,"AV. RUI BARBOSA, 320","GRACAS","411, 412, 413, 414, 415","411-0, 412-0, 413-0, 414-0, 415-0",0,-8.0488639,-34.89876
8,1201,"CBV - JAQUEIRA",Recife,"RUA DR JOSE MARIA                     1106","ROSARINHO","128, 129, 130, 131, 132, 133, 404, 408, 416","128-391, 129-390, 130-391, 131-390, 132-391, 133-389, 404-391, 408-391, 416-389",3513,-8.03472566,-34.90176161
8,1619,"CENTRO SOCIAL DOM JOÃO COSTA",Recife,"RUA ACAIACA,70","ALTO JOSE DO PINHO","331, 332, 333, 334, 335","331-394, 332-390, 333-388, 334-391, 335-389",1952,-8.0218277,-34.90896335
8,1635,"CLUBE ESPORTIVO SOBRE RODAS",Recife,"RUA SALVADOR DE SA, 125","ARRUDA","342, 343, 344, 345, 346","342-205, 343-199, 344-201, 345-201, 346-197",1003,-8.03218316,-34.89313837
8,1643,"COLÉGIO ADVENTISTA DO ARRUDA",Recife,"RUA ZEFERINO AGRA, 268","ARRUDA","347, 348, 349, 350, 351, 352, 353, 354, 355, 356, 357, 358, 359, 360, 361, 362, 363, 364, 365, 366, 367","347-340, 348-340, 349-338, 350-340, 351-339, 352-337, 353-335, 354-338, 355-339, 356-343, 357-341, 358-339, 359-340, 360-340, 361-343, 362-341, 363-336, 364-343, 365-339, 366-343, 367-339",7133,-8.02164656,-34.89195485
8,1384,"COLEGIO ANGLO LÍDER",Recife,"RUA VISCONDE DE ABAETE, 200","TAMARINEIRA","124, 125, 126, 127, 174, 197, 221","124-391, 125-390, 126-386, 127-388, 174-389, 197-390, 221-391",2725,-8.02910054,-34.89783416
8,1236,"COLEGIO DA POLICIA MILITAR",Recife,"RUA HENRIQUE DIAS, S/N","DERBY","52, 53, 54, 55, 56, 154, 166","52-280, 53-283, 54-281, 55-281, 56-279, 154-281, 166-279",1964,-8.05915552,-34.8992939
8,1180,"COLEGIO DAS DAMAS DA INSTRUCAO CRISTA",Recife,"AV RUI BARBOSA                              1426","GRACAS","114, 115, 116, 117, 118, 119, 120, 121, 122, 123, 144, 152, 239, 243, 245, 405","114-398, 115-397, 116-397, 117-398, 118-398, 119-397, 120-398, 121-396, 122-398, 123-397, 144-397, 152-398, 239-373, 243-374, 245-372, 405-372",6260,-8.04212679,-34.90263745
8,1627,"COLÉGIO GGE - PARNAMIRIM",Recife,"RUA DESEMBARGADOR GÓIS CAVALCANTE, 460","PARNAMIRIM","336, 337, 338, 339, 340, 341","336-398, 337-398, 338-398, 339-397, 340-396, 341-396",2383,-8.03249667,-34.91178333
8,1279,"COLEGIO MARISTA SAO LUÍS",Recife,"AV. RUI BARBOSA, 1104","GRACAS","157, 158, 162, 163, 165, 168, 178, 189, 193, 198, 214, 217, 219, 220, 227, 229, 232, 234, 236, 237, 406","157-394, 158-393, 162-392, 163-394, 165-392, 168-392, 178-391, 189-391, 193-391, 198-392, 214-392, 217-393, 219-391, 220-392, 227-392, 229-392, 232-392, 234-394, 236-392, 237-393, 406-390",8235,-8.04303982,-34.90234879
8,1554,"COLÉGIO MODELO (ANTIGO QUADRA DO SANTA CRUZ FUTEBOL CLUBE)",Recife,"RUA RAMIZ GALVÃO, 83","ARRUDA","285, 286, 287, 288, 289, 290","285-309, 286-317, 287-315, 288-311, 289-312, 290-312",1876,-8.02761169,-34.89039858
8,1473,"COLÉGIO PRESBITERIANO MACKENZIE AGNES",Recife,"RUA AMÉLIA, 483","GRACAS","1, 2, 3, 4, 5, 6, 7, 8, 142, 151, 173, 192, 241, 244, 246","1-377, 2-375, 3-376, 4-376, 5-375, 6-375, 7-376, 8-375, 142-374, 151-378, 173-374, 192-375, 241-374, 244-374, 246-375",5629,-8.04708848,-34.90082632
8,1740,"COLÉGIO TERCEIRO MILÊNIO",Recife,"RUA DR. FERNANDO ALAIN, 136","ESPINHEIRO","156, 160, 164, 167, 171, 181, 183, 191, 207","156-349, 160-350, 164-348, 167-349, 171-347, 181-349, 183-349, 191-348, 207-349",3138,-8.0425521,-34.8884879
8,1759,"COLÉGIO TRIUNFO",Recife,"R. DO TRIUNFO, 647","ARRUDA","280, 281, 282, 283, 284, 407","280-286, 281-292, 282-275, 283-301, 284-305, 407-98",1557,-8.0252439,-34.8884964
8,1139,"COLEGIO VERA CRUZ",Recife,"AVENIDA RUI BARBOSA                   57","GRACAS","81, 82, 83, 84, 85, 86, 87, 88, 89, 90, 91, 92, 93, 143","81-327, 82-328, 83-330, 84-328, 85-329, 86-330, 87-328, 88-331, 89-329, 90-330, 91-329, 92-328, 93-329, 143-328",4604,-8.05098616,-34.89717231
8,1651,"DNOCS",Recife,"RUA CONEGO BARATA                     999","TAMARINEIRA","368, 369, 370, 371, 372, 373, 374, 375, 376, 377, 378, 379, 380, 381, 382","368-278, 369-277, 370-277, 371-277, 372-278, 373-277, 374-281, 375-278, 376-278, 377-277, 378-279, 379-277, 380-279, 381-277, 382-276",4166,-8.02733833,-34.89758833
8,1376,"EDUCANDARIO NOSSA SENHORA DE LOURDES",Recife,"AVENIDA ROSA E SILVA, 1767","AFLITOS","175, 185, 194, 200, 202, 208, 218, 222","175-389, 185-389, 194-388, 200-387, 202-391, 208-386, 218-389, 222-387",3106,-8.03668765,-34.90157651
8,1350,"ESCOLA DOM HELDER CAMARA",Recife,"RUA MARQUES DO PARANA, 320","ESPINHEIRO","172, 201, 211, 230","172-335, 201-306, 211-329, 230-330",1300,-8.04091879,-34.88839903
8,1678,"ESCOLA DONA MARIA TERESA CORREIA",Recife,"RUA SEIS S/N","ALTO JOSE DO PINHO","394, 395, 396, 397, 398, 399, 400, 401, 402, 403","394-394, 395-392, 396-394, 397-393, 398-392, 399-395, 400-391, 401-393, 402-394, 403-395",3933,-8.02192891,-34.90738392
8,1570,"ESCOLA ESTADUAL JOSÉ VILELA",Recife,"ESTRADA DO ENCANAMENTO, 277","PARNAMIRIM","299, 300, 301, 302, 303, 304, 305, 306, 307, 308, 309, 310","299-282, 300-280, 301-279, 302-277, 303-279, 304-277, 305-283, 306-281, 307-281, 308-281, 309-282, 310-282",3364,-8.032245,-34.91287333
8,1392,"ESCOLA ESTADUAL REGUEIRA COSTA",Recife,"RUA REGUEIRA COSTA, S/N","ROSARINHO","134, 135, 136, 137, 145, 212, 226, 235, 410","134-388, 135-387, 136-387, 137-386, 145-385, 212-386, 226-383, 235-387, 410-388",3477,-8.03407026,-34.89840223
8,1368,"ESCOLA GOVERNADOR BARBOSA LIMA",Recife,"RUA JOAQUIM NABUCO, S/N","GRACAS","170, 196, 238","170-252, 196-246, 238-221",719,-8.05277742,-34.89642382
8,1600,"ESCOLA MOTA E ALBUQUERQUE",Recife,"RUA SOARES MORENO , 117","TAMARINEIRA","325, 326, 327, 328, 329, 330","325-340, 326-339, 327-337, 328-339, 329-338, 330-341",2034,-8.02957,-34.906035
8,1520,"ESCOLA MUNICIPAL DA MANGABEIRA",Recife,"RUA NICEAS ARCOVERDE GUSMÃO, S/N","MANGABEIRA","248, 249, 250, 251, 252","248-246, 249-241, 250-241, 251-242, 252-241",1211,-8.02361514,-34.90043103
8,1562,"ESCOLA MUNICIPAL SANTA MARIA",Recife,"RUA ACAIACA  ,  70","ALTO JOSE DO PINHO","291, 292, 293, 294, 295, 296, 297, 298, 409","291-394, 292-392, 293-386, 294-388, 295-392, 296-389, 297-391, 298-394, 409-388",3514,-8.02201452,-34.90886759
8,1589,"ESCOLA MUNICIPAL SEVERINA LIRA",Recife,"RUA DA BOA VONTADE, 110","TAMARINEIRA","312, 314","312-252, 314-220",472,-8.0287,-34.90061167
8,1120,"ESCOLA PAULA FRASSINETTI",Recife,"RUA GOMES PACHECO                     SN","ESPINHEIRO","71, 72, 73, 74, 75, 76, 77, 78, 79, 80, 150","71-243, 72-241, 73-244, 74-243, 75-243, 76-245, 77-243, 78-243, 79-244, 80-243, 150-243",2675,-8.04082688,-34.88832571
8,1538,"ESCOLA PROFESSOR ALFREDO FREYRE",Recife,"RUA ZEFERINO AGRA, 193","ARRUDA","253, 254, 255, 256, 257, 258, 259, 260, 261, 262, 263, 264, 265, 266, 267, 268, 269, 270, 271, 272, 273, 274, 275","253-318, 254-319, 255-324, 256-319, 257-323, 258-318, 259-319, 260-321, 261-321, 262-317, 263-326, 264-321, 265-317, 266-318, 267-317, 268-317, 269-319, 270-316, 271-318, 272-322, 273-318, 274-321, 275-314",7343,-8.02132816,-34.89265085
8,1104,"ETEPAM - ESCOLA TECNICA ESTADUAL PROF. AGAMENON MAGALHAES",Recife,"AVENIDA JOAO DE BARROS                1769","ENCRUZILHADA","57, 58, 59, 60, 61, 62, 63, 64, 65, 66, 67, 68, 69, 70, 147","57-321, 58-321, 59-323, 60-321, 61-323, 62-321, 63-324, 64-321, 65-322, 66-323, 67-323, 68-322, 69-324, 70-320, 147-322",4831,-8.03916707,-34.8922357
8,1023,"INSTITUTO DOS CEGOS",Recife,"RUA GUILHERME PINTO, 146","CAPUNGA","9, 179","9-173, 179-174",347,-8.05206647,-34.90222191
8,1031,"INSTITUTO PROFISSIONAL MARIA AUXILIADORA",Recife,"RUA JOAQUIM NABUCO, 237","GRACAS","10, 11, 12, 13, 14, 15, 177, 215","10-287, 11-296, 12-287, 13-290, 14-286, 15-292, 177-287, 215-286",2311,-8.05263676,-34.89841034
8,1732,"PARÓQUIA DE SANTO ANTONIO ÁGUA FRIA/ARRUDA",Recife,"RUA ZEFERINO AGRA, 580","ARRUDA","276, 277, 278, 279","276-322, 277-326, 278-322, 279-325",1295,-8.0225158,-34.8891801
8,1660,"SANTA CRUZ FUTEBOL CLUBE",Recife,"AVENIDA BEBERIBE,1285","ARRUDA","383, 384, 385, 386, 387, 388, 389, 390, 391, 392, 393","383-340, 384-333, 385-329, 386-334, 387-334, 388-333, 389-333, 390-332, 391-338, 392-327, 393-332",3665,-8.02648904,-34.8930908
8,1597,"SESC",Recife,"AV. PROF. JOSE DOS ANJOS, 09","MANGABEIRA","315, 316, 317, 318, 319, 320, 321, 322, 323, 324","315-338, 316-325, 317-327, 318-324, 319-324, 320-326, 321-327, 322-319, 323-325, 324-326",3261,-8.02592,-34.90526667
9,1767,"ASSOCIAÇÃO CENTRO EDUCACIONAL MAGNO DELAMADRI - ANTIGO CEMA",Recife,"RUA ESPINOSA, 361","ALTO JOSE BONIFACIO","519, 520","519-390, 520-385",775,-8.01222854,-34.90917639
9,1520,"CLUBE ASSISTENCIAL ESPORTIVO BELA VISTA",Recife,"RUA ANÍBAL BENÉVOLO, 636","AGUA FRIA","321, 327, 331, 333, 336, 339, 340, 341, 536","321-367, 327-368, 331-366, 333-372, 336-367, 339-363, 340-364, 341-366, 536-358",3291,-8.0076938,-34.8958993
9,1511,"COLEGIO MOVIMENTO- ANTIGO HORIZONTE",Recife,"RUA MOEMA, 157","AGUA FRIA","83, 84, 85, 200, 317, 319","83-391, 84-390, 85-390, 200-389, 317-388, 319-392",2340,-8.0183649,-34.8915892
9,1775,"COMPAZ - GOVERNADOR EDUARDO CAMPOS",Recife,"AV. ANÍBAL BENÉVOLO, S/N","LINHA DO TIRO","528, 542","528-348, 542-140",488,-8.0106084,-34.9029196
9,1724,"EREM DE BEBERIBE",Recife,"RUA URIEL DE HOLANDA                         219","BEBERIBE","485, 486, 487, 488, 489, 490, 491, 492, 493, 494, 495, 496, 497, 498, 499","485-387, 486-388, 487-388, 488-387, 489-388, 490-388, 491-389, 492-386, 493-385, 494-387, 495-385, 496-386, 497-385, 498-388, 499-389",5806,-8.0043784,-34.8994462
9,1759,"EREM PADRE NERCIO RODRIGUES",Recife,"RUA URIEL DE HOLANDA, SN","LINHA DO TIRO","513, 514, 515, 516, 517, 518, 533, 544","513-381, 514-383, 515-384, 516-374, 517-381, 518-382, 533-362, 544-265",2912,-8.0079007,-34.9076702
9,1023,"EREM PROF. MARDÔNIO DE ANDRADE DE LIMA COELHO",Recife,"RUA CHA DE ALEGRIA, 117","BOMBA DO HEMETERIO","12, 13, 14, 15, 16, 17, 18, 77, 78, 79, 232, 236, 239, 251, 530, 541","12-391, 13-393, 14-389, 15-393, 16-392, 17-387, 18-392, 77-392, 78-392, 79-391, 232-393, 236-391, 239-391, 251-392, 530-393, 541-388",6260,-8.0207659,-34.9038273
9,1783,"ESCOLA COMANDANTE LUIZ GOMES - ANTIGA ESCOLA IRMÃ MAGNA",Recife,"AV. VEREADOR OTACÍLIO DE AZEVEDO N. 2567","BREJO DE BEBERIBE","478, 479, 480, 481, 482, 483, 484, 539, 545","478-369, 479-375, 480-376, 481-372, 482-372, 483-378, 484-369, 539-389, 545-368",3368,-7.998911,-34.9241446
9,1120,"ESCOLA ESTADUAL ANA MALTA DA COSTA AZEVEDO",Recife,"RUA PADRE OLIVEIRA, 684","BOMBA DO HEMETERIO","80, 81, 82, 311, 525","80-371, 81-369, 82-374, 311-371, 525-372",1857,-8.0190826,-34.9098386
9,1597,"ESCOLA ESTADUAL CAIO PEREIRA",Recife,"RUA ALTO JOSE BONIFACIO, S/N","ALTO JOSE BONIFACIO","351, 352, 353, 354, 355, 356, 357, 358, 523, 532, 543","351-377, 352-379, 353-377, 354-377, 355-378, 356-377, 357-380, 358-379, 523-375, 532-380, 543-374",4153,-8.0123394,-34.913311
9,1600,"ESCOLA ESTADUAL DOUTOR FABIO CORREIA",Recife,"RUA ADALBERTO ELIAS DA COSTA  SN","BEBERIBE","359, 360, 361, 362, 363, 364, 365, 366, 367, 368, 369, 370, 371","359-336, 360-333, 361-331, 362-334, 363-338, 364-335, 365-332, 366-332, 367-330, 368-337, 369-335, 370-333, 371-331",4337,-8.0051866,-34.8982255
9,1660,"ESCOLA ESTADUAL DR. FRANCISCO PESSOA DE QUEIROZ",Recife,"AV. HIDELBRANDO DE VASCONCELOS, SN","DOIS UNIDOS","431, 432, 433, 434, 435, 436, 437, 438, 439, 440, 441","431-398, 432-397, 433-394, 434-394, 435-400, 436-395, 437-396, 438-395, 439-398, 440-398, 441-398",4363,-7.9944694,-34.9113297
9,1465,"ESCOLA ESTADUAL GABRIELA MISTRAL",Recife,"RUA LADEIRA DE PEDRA, SN","AGUA FRIA","277, 287, 291, 301, 313, 316, 527","277-391, 287-392, 291-396, 301-388, 313-383, 316-389, 527-393",2732,-8.0139627,-34.9036098
9,1627,"ESCOLA ESTADUAL PEDRO CELSO",Recife,"RUA URIEL DE HOLANDA SN","BEBERIBE","386, 387, 388, 389, 390, 391, 392, 393, 394, 395, 396, 397, 398, 399, 400, 401, 402, 403, 404, 405, 406, 408","386-382, 387-382, 388-382, 389-383, 390-381, 391-382, 392-380, 393-383, 394-383, 395-383, 396-381, 397-383, 398-383, 399-381, 400-382, 401-381, 402-384, 403-384, 404-382, 405-383, 406-385, 408-385",8415,-8.0035202,-34.8984027
9,1236,"ESCOLA ESTADUAL PROF. PEDRO AUGUSTO CARNEIRO LEAO",Recife,"AVENIDA BEBERIBE, 2595","FUNDAO","167, 168, 169, 170, 171, 172, 173, 174, 175, 176, 215, 535","167-377, 168-374, 169-372, 170-371, 171-371, 172-373, 173-371, 174-372, 175-371, 176-371, 215-372, 535-378",4473,-8.0157297,-34.890929
9,1643,"ESCOLA ESTADUAL PROFESSOR JOSE DOS ANJOS",Recife,"AV HIDELBRANDO DE VASCONCELOS       SN","DOIS UNIDOS","415, 416, 417, 418, 419, 420, 421, 422, 423, 424, 537","415-398, 416-396, 417-401, 418-398, 419-398, 420-399, 421-394, 422-397, 423-398, 424-400, 537-392",4371,-7.9893062,-34.9168646
9,1066,"ESCOLA ESTADUAL ROSA MAGALHAES MELO",Recife,"AV ANIBAL BENEVOLO, 1378","AGUA FRIA","188, 195, 210, 216, 219, 221, 224, 227, 256, 529","188-393, 195-391, 210-395, 216-394, 219-392, 221-392, 224-392, 227-392, 256-386, 529-385",3912,-8.0106041,-34.9015524
9,1414,"ESCOLA ESTADUAL SAO FRANCISCO DE ASSIS",Recife,"RUA SAO BENTO, 157","AGUA FRIA","234, 238, 240, 250, 342, 524","234-383, 238-387, 240-385, 250-388, 342-383, 524-386",2312,-8.0236027,-34.895349
9,1546,"ESCOLA MUNICIPAL ANA MAURÍCIA WANDERLEY",Recife,"RUA JOÃO UZEDA LUNA, 813 - CORREGO SÃO SEBASTIÃO","AGUA FRIA","326, 328, 329, 330, 538","326-359, 328-353, 329-341, 330-357, 538-236",1646,-8.0179648,-34.8960306
9,1325,"ESCOLA MUNICIPAL ANTONIO HERACLIO DO REGO",Recife,"RUA MANOEL SILVA, 134","FUNDAO","8, 9, 10, 11, 54, 55, 56, 57, 58, 59, 60","8-305, 9-306, 10-304, 11-301, 54-303, 55-300, 56-304, 57-298, 58-297, 59-303, 60-298",3319,-8.0185508,-34.8889563
9,1791,"ESCOLA MUNICIPAL DE BEBERIBE - ANTIGA ZULEIDE GOMES",Recife,"RUA MELANIO DE BARROS CORREIA SN","BEBERIBE","409, 410, 411, 412, 413, 414, 540","409-278, 410-279, 411-281, 412-281, 413-294, 414-243, 540-44",1700,-8.0033253,-34.898994
9,1694,"ESCOLA MUNICIPAL DOM JOSÉ LAMARTINE SOARES",Recife,"RUA ALTO DO EUCALIPTO, S/N","VASCO DA GAMA","466, 467, 468, 469, 470, 471","466-394, 467-393, 468-393, 469-393, 470-393, 471-392",2358,-8.0083365,-34.9194974
9,1490,"ESCOLA MUNICIPAL MANOEL ANTONIO DE FREITAS",Recife,"RUA SAO JERONIMO, 147","ALTO SANTA TEREZINHA","310, 324, 526","310-352, 324-343, 526-138",833,-8.0176833,-34.909161
9,1686,"ESCOLA MUNICIPAL MARLUCE SANTIAGO DA SILVA",Recife,"ESTRADA DE PASSARINHO","PASSARINHO","460, 461, 462, 463, 464, 465, 534","460-398, 461-399, 462-399, 463-399, 464-398, 465-398, 534-397",2788,-7.980366,-34.9177142
9,1732,"ESCOLA MUNICIPAL MONSENHOR VIANA",Recife,"RUA TAGUATINGA, S/N","BEBERIBE","500, 501, 502, 503, 504, 505, 506","500-307, 501-309, 502-308, 503-308, 504-309, 505-311, 506-313",2165,-8.0046059,-34.8982269
9,1740,"ESCOLA MUNICIPAL OLINDINA MONTEIRO DE OLIVEIRA FRANCA",Recife,"RUA DA BELA VISTA, S/N","DOIS UNIDOS","507, 508, 509, 510, 511, 512","507-395, 508-393, 509-390, 510-396, 511-395, 512-396",2365,-8.002735,-34.9061975
9,1708,"ESCOLA MUNICIPAL OTÁVIO DE MEIRA LINS",Recife,"RUA JOSÉ REBOUÇAS, 141","VASCO DA GAMA","472, 473, 474, 475, 476, 477, 531","472-385, 473-384, 474-385, 475-381, 476-383, 477-381, 531-384",2683,-8.0102267,-34.9163278
9,1651,"ESCOLA MUNICIPAL PASTOR PAULO LEIVAS MACALAO",Recife,"RUA ALTEROSA, S/N","ALTO JOSE BONIFACIO","425, 426, 427, 428, 429, 430","425-387, 426-392, 427-389, 428-385, 429-391, 430-388",2332,-8.0121405,-34.9088785
9,1678,"ESCOLA MUNICIPAL PAULO VI",Recife,"RUA GUAIRA , SN","LINHA DO TIRO","442, 443, 444, 445, 446, 447, 448, 449, 450, 451, 452, 453, 454, 455","442-381, 443-387, 444-384, 445-385, 446-381, 447-388, 448-389, 449-389, 450-384, 451-387, 452-385, 453-382, 454-385, 455-383",5390,-8.0076779,-34.9046548
9,1015,"ESCOLA MUNICIPAL POETA SOLANO TRINDADE",Recife,"RUA MANOEL SILVA, 134","FUNDAO","61, 62, 63, 64, 65, 209, 323, 325","61-270, 62-268, 63-267, 64-271, 65-267, 209-278, 323-264, 325-269",2154,-8.0183707,-34.8891694
9,1589,"ESCOLA MUNICIPAL PROFESSOR RICARDO GAMA",Recife,"RUA GUAIRA 160","LINHA DO TIRO","344, 345, 346, 347, 348, 349, 350, 456, 457, 458, 459","344-378, 345-369, 346-374, 347-372, 348-370, 349-374, 350-369, 456-371, 457-368, 458-371, 459-378",4094,-8.0074503,-34.9043785
9,1392,"ESCOLA MUNICIPAL SAO JOAO BATISTA",Recife,"AVENIDA ANIBAL BENEVOLO, 1800","AGUA FRIA","260, 273, 285, 299, 308","260-379, 273-385, 285-384, 299-378, 308-385",1911,-8.0120094,-34.9045723
9,1058,"ESCOLA ROTARY DO ALTO DO PASCOAL",Recife,"RUA LADEIRA DE PEDRA, 958","AGUA FRIA","19, 20, 21, 22, 23, 24, 25, 42, 43, 44, 45, 46, 47, 246","19-387, 20-385, 21-384, 22-385, 23-387, 24-392, 25-388, 42-386, 43-394, 44-393, 45-387, 46-391, 47-390, 246-405",5454,-8.0153764,-34.9020735
9,1619,"INVEST CENTRO EDUCACIONAL",Recife,"AVENIDA BEBERIBE                      3607","PORTO DA MADEIRA","372, 373, 374, 375, 376, 377, 378, 379, 380, 381, 382, 383, 384, 385","372-386, 373-392, 374-390, 375-390, 376-388, 377-389, 378-390, 379-389, 380-390, 381-388, 382-389, 383-391, 384-390, 385-390",5452,-8.0073711,-34.8904874
149,1201,"ACADEMIA CRISTÃ DE BOA VIAGEM",Recife,"AV. VISCONDE DE JEQUITINHONHA, 355","BOA VIAGEM","219, 224, 232, 240, 244, 246, 250, 253, 263, 269","219-399, 224-398, 232-397, 240-396, 244-399, 246-399, 250-399, 253-395, 263-395, 269-400",3977,-8.12225189,-34.90391936
149,1589,"ACBV -  NINHO EDUCAÇÃO INFANTIL",Recife,"RUA HÉLIO FALCÃO,139","BOA VIAGEM","25, 26, 27","25-398, 26-396, 27-397",1191,0,0
149,1520,"AEROPORTO INTERNACIONAL DOS GUARARAPES - VOTO EM TRÂNSITO",Recife,"AVENIDA MASCARENHAS DE MORAIS, S/N, PRAÇA MINISTRO SALGADO FILHO","IMBIRIBEIRA","447, 448, 456, 457, 458, 459","447-0, 448-0, 456-0, 457-0, 458-0, 459-0",0,0,0
149,1015,"CENTRO INTERESCOLAR SANTOS DUMONT",Recife,"RUA BARÃO DE SOUZA LEÃO , SN","BOA VIAGEM","1, 2, 3, 4, 5, 6, 7, 8, 9, 10, 11, 12, 13, 14, 15, 16, 17, 18, 19, 20","1-395, 2-394, 3-392, 4-388, 5-392, 6-394, 7-393, 8-395, 9-393, 10-393, 11-393, 12-394, 13-393, 14-394, 15-394, 16-394, 17-392, 18-390, 19-394, 20-392",7859,-8.1320579,-34.90687243
149,1279,"COLÉGIO CRISTÃO DO RECIFE",Recife,"RUA WALDEMAR NERY CARNEIRO MONTEIRO, 101","BOA VIAGEM","278, 451","278-342, 451-156",498,-8.1337647,-34.91206567
149,1074,"COLÉGIO DOURADO",Recife,"AV. 20 DE JANEIRO, 1245","BOA VIAGEM","92, 93, 94, 95, 96, 97, 98, 99, 100, 101, 102, 103, 104, 105, 106, 107, 108, 109","92-227, 93-227, 94-226, 95-225, 96-226, 97-227, 98-226, 99-225, 100-225, 101-227, 102-226, 103-226, 104-224, 105-226, 106-226, 107-225, 108-227, 109-226",4067,-8.14349008,-34.91507354
149,1295,"COLÉGIO ELO",Recife,"RUA JOSÉ PARAISO  189","BOA VIAGEM","445, 450, 455","445-398, 450-399, 455-397",1194,-8.13519839,-34.90458789
149,1244,"COLÉGIO GRANDE PASSO",Recife,"RUA PROF. AURELIO DE CASTRO CAVALCANTE, 511","BOA VIAGEM","275, 276, 286, 289, 292, 446","275-367, 276-368, 286-367, 289-368, 292-367, 446-366",2203,-8.14147996,-34.91296649
149,1058,"COLÉGIO MARIA TEREZA",Recife,"RUA BARÃO DE SOUZA LEÃO ,1647","BOA VIAGEM","58, 59, 60, 61, 62, 63, 64, 65, 66, 67, 68, 69, 70, 71, 72, 73, 237","58-276, 59-277, 60-274, 61-276, 62-276, 63-274, 64-275, 65-275, 66-274, 67-275, 68-276, 69-277, 70-278, 71-276, 72-276, 73-275, 237-275",4685,-8.13261271,-34.91488849
149,1414,"CRECHE SONHO DE CRIANCA",Recife,"RUA TEOTONIO DE MELO FILHO, 297","IBURA DE BAIXO","356, 357, 358","356-328, 357-330, 358-325",983,-8.11253105,-34.93508753
149,1210,"ESCOLA AMERICANA DO RECIFE",Recife,"RUA SÁ E SOUZA, 408","BOA VIAGEM","221, 228, 231, 234, 236, 239, 241, 243, 245, 248, 249, 252, 259, 262, 265, 268, 271, 272, 274","221-397, 228-394, 231-396, 234-397, 236-397, 239-396, 241-397, 243-395, 245-396, 248-397, 249-396, 252-397, 259-394, 262-393, 265-396, 268-396, 271-396, 272-396, 274-397",7523,-8.13602576,-34.90603219
149,1481,"ESCOLA APOLONIO SALES",Recife,"RUA PROF. JOSÉ BRASILEIRO VILA NOVA, 38 - IBURA DE BAIXO - RECIFE/PE","IBURA DE BAIXO","406, 407, 408, 409, 410, 411, 412, 413, 414, 415, 416, 417, 418, 419","406-381, 407-381, 408-377, 409-379, 410-377, 411-378, 412-381, 413-381, 414-380, 415-380, 416-381, 417-380, 418-377, 419-378",5311,-8.10992133,-34.93284965
149,1546,"ESCOLA CECÍLIA MEIRELES",Recife,"RUA DOURO, 49","IBURA DE BAIXO","449","449-323",323,0,0
149,1490,"ESCOLA ENEIDA RABELO",Recife,"RUA DONA CARENTINA SN","JORDÃO","423, 424, 425, 426, 427, 428, 429, 430, 431, 432, 433, 434, 435","423-393, 424-393, 425-393, 426-392, 427-392, 428-393, 429-388, 430-389, 431-390, 432-390, 433-389, 434-390, 435-389",5081,-8.13420882,-34.94136226
149,1040,"ESCOLA ESTADUAL BRIGADEIRO EDUARDO GOMES",Recife,"RUA BARÃO DE SOUZA LEÃO , SN","BOA VIAGEM","41, 42, 43, 44, 45, 46, 47, 48, 49, 50, 51, 52, 53, 54, 55, 56, 57","41-358, 42-359, 43-357, 44-356, 45-356, 46-357, 47-352, 48-359, 49-356, 50-362, 51-356, 52-356, 53-356, 54-357, 55-356, 56-358, 57-352",6063,-8.13203229,-34.90662529
149,1023,"ESCOLA ESTADUAL PROFESSOR FERNANDO MOTA",Recife,"RUA COPACABANA, SN","BOA VIAGEM","21, 22, 23, 24, 194, 202, 207, 211, 216","21-370, 22-367, 23-363, 24-359, 194-360, 202-365, 207-365, 211-366, 216-365",3280,-8.13615425,-34.91434268
149,1422,"ESCOLA JORNALISTA COSTA PORTO",Recife,"RUA BAHIA,  SN","JORDAO BAIXO","359, 360, 361, 362, 363, 364, 365, 366, 367, 368, 369, 370, 371, 372, 373","359-390, 360-391, 361-390, 362-390, 363-389, 364-391, 365-389, 366-390, 367-389, 368-389, 369-390, 370-389, 371-391, 372-388, 373-388",5844,-8.13371578,-34.93559527
149,1317,"ESCOLA MAESTRO NELSON FERREIRA",Recife,"RUA AVELINO CHAVES, 176","IBURA DE BAIXO","296, 454","296-352, 454-131",483,-8.12534399,-34.93575077
149,1570,"ESCOLA MANOEL BORBA (DENTRO DO PARQUE SANTOS DUMONT)",Recife,"R. ALM. NELSON FERNANDES, S/N - BOA VIAGEM","BOA VIAGEM","460","460-54",54,0,0
149,1430,"ESCOLA MARIA RITA DA SILVA LESSA",Recife,"AVENIDA MENDES SAMPAIO                      SN","JORDAO BAIXO","374, 375, 376, 377, 378, 379, 380, 381, 382","374-343, 375-341, 376-346, 377-340, 378-342, 379-345, 380-342, 381-344, 382-340",3083,-8.13599766,-34.93835243
149,1333,"ESCOLA MUNICIPAL DE  DOIS RIOS",Recife,"RUA IRMA MARIA EVANGELISTA                83","UR-4","304, 305, 306, 307, 308, 309, 310, 311","304-317, 305-314, 306-310, 307-315, 308-315, 309-319, 310-312, 311-316",2518,-8.12704202,-34.94458782
149,1384,"ESCOLA MUNICIPAL DEPUTADO EDSON CANTARELLI",Recife,"RUA RUBINEIA, N. 49","JORDAO BAIXO","327, 328, 329, 330, 331","327-399, 328-392, 329-390, 330-392, 331-390",1963,-8.12986295,-34.93868818
149,1511,"ESCOLA MUNICIPAL DO JORDAO",Recife,"RUA SILVA JARDIM, 175","JORDAO BAIXO","442, 443, 444","442-260, 443-257, 444-260",777,-8.13902054,-34.92892417
149,1449,"ESCOLA MUNICIPAL FERNANDO SANTA CRUZ",Recife,"RUA BOANERGES PEREIRA, 437","JORDAO BAIXO","321, 383, 384","321-144, 383-264, 384-145",553,-8.13716793,-34.94137716
149,1465,"ESCOLA MUNICIPAL FLORESTAN FERNANDES",Recife,"RUA RIO NOVO DO SUL                         SN","IBURA DE BAIXO","390, 391, 392, 393, 394, 395, 396, 397, 398, 399","390-390, 391-395, 392-392, 393-393, 394-392, 395-392, 396-388, 397-392, 398-389, 399-389",3912,-8.11559425,-34.94243722
149,1406,"ESCOLA MUNICIPAL IBURA DE BAIXO",Recife,"RUA RIO NOVO DO SUL, 498","IBURA DE BAIXO","350, 351, 352, 353, 354, 355","350-351, 351-353, 352-354, 353-351, 354-352, 355-350",2111,-8.11480274,-34.94258729
149,1350,"ESCOLA MUNICIPAL PASTOR MUNGUBA SOBRINHO",Recife,"RUA SILVA JARDIM, 145","JORDAO BAIXO","315, 316, 317, 318, 319, 320","315-254, 316-258, 317-260, 318-258, 319-257, 320-256",1543,-8.13939059,-34.92878157
149,1619,"ESCOLA MUNICIPAL PAZ E AMOR",Recife,"RUA JORNALISTA EDSON REGIS,216","IBURA","420, 421, 422","420-369, 421-371, 422-370",1110,0,0
149,1457,"ESCOLA MUNICIPAL PINTOR LULA CARDOSO AYRES",Recife,"RUA DESEMBARGADOR EVANDRO NETO, S/N","JORDAO BAIXO","385, 386, 387, 388, 389","385-388, 386-391, 387-389, 388-386, 389-391",1945,-8.13131528,-34.93804488
149,1341,"ESCOLA MUNICIPAL PROF. ENALDO MANOEL DE SOUZA",Recife,"RUA JURACY CAMARGO, S/N","JORDAO ALTO","312, 313, 314","312-371, 313-374, 314-371",1116,-8.13520231,-34.94029947
149,1503,"ESCOLA MUNICIPAL PROFESSOR ADAUTO PONTES",Recife,"RUA SERTANIA,  SN","JORDAO ALTO","436, 437, 438, 439, 440, 441","436-323, 437-324, 438-322, 439-326, 440-323, 441-323",1941,-8.13529293,-34.94483994
149,1554,"ESCOLA MUNICIPAL PROFESSOR JOSÉ LOURENÇO",Recife,"RUA NOVA AMÉRICA, 168","IBURA","452","452-227",227,0,0
149,1562,"ESCOLA MUNICIPAL PROFESSOR MANOEL TORRES",Recife,"RUA JOAQUIM PINHEIRO, 1-115","BOA VIAGEM","461","461-10",10,0,0
149,1325,"ESCOLA MUNICIPAL SIMOES BARBOSA",Recife,"RUA ECOPORANGA, S/N","IBURA DE BAIXO","297, 298, 299, 300, 301, 302, 303","297-393, 298-394, 299-396, 300-393, 301-393, 302-394, 303-395",2758,-8.11522451,-34.93989904
149,1473,"ESCOLA MUNICIPAL VILA OPERÁRIA RECIFE",Recife,"RUA EMÍLIO MONTEIRO DA FONSECA, 1530","IBURA DE BAIXO","400, 401, 402, 403, 404, 405","400-393, 401-392, 402-392, 403-389, 404-394, 405-394",2354,-8.12435848,-34.93624171
149,1597,"ESCOLA PROFESSORA INALDA SPINELLI",Recife,"R. JORGE COUCEIRO DA COSTA EIRAS, SN","BOA VIAGEM","28, 29, 30, 31, 32","28-376, 29-377, 30-376, 31-376, 32-375",1880,0,0
149,1376,"ESCOLA ROBERTO SILVEIRA",Recife,"RUA GOVERNADOR ROBERTO SILVEIRA        SN","JORDÃO","322, 323, 324, 325, 326","322-395, 323-395, 324-393, 325-396, 326-396",1975,-8.13659354,-34.93662353
149,1198,"ESCOLA TÉCNICA ESTADUAL CÍCERO DIAS",Recife,"RUA MARQUES DE VALENÇA, 470","BOA VIAGEM","220, 223, 261, 270, 281, 285, 288, 291","220-378, 223-376, 261-376, 270-377, 281-381, 285-375, 288-379, 291-378",3020,-8.12869517,-34.90756425
149,1309,"INSTITUTO SANTA RITA DE CÁSSIA",Recife,"RUA RIO CHUY, 115","IBURA DE BAIXO","294, 295","294-303, 295-217",520,-8.11603221,-34.9394106
149,1392,"SESI - SERVICO SOCIAL DA INDUSTRIA",Recife,"AVENIDA DOIS RIOS, 228","IBURA DE BAIXO","332, 333, 334, 335, 336, 337, 338, 339, 340, 341, 342, 343, 344, 345, 346, 347, 348, 349","332-331, 333-326, 334-325, 335-323, 336-325, 337-324, 338-323, 339-326, 340-325, 341-323, 342-324, 343-324, 344-325, 345-331, 346-325, 347-322, 348-326, 349-323",5851,-8.11019512,-34.93717534
149,1287,"UNINASSAU - UNIDADE BOA VIAGEM",Recife,"RUA JÔNATAS VASCONCELOS, 92","BOA VIAGEM","37, 38, 39, 40, 110, 111, 112, 113, 114, 115, 116, 117, 118, 119, 120, 121, 122, 123, 124, 196, 198, 199, 287","37-302, 38-301, 39-300, 40-300, 110-303, 111-299, 112-302, 113-302, 114-301, 115-301, 116-302, 117-302, 118-300, 119-299, 120-301, 121-301, 122-301, 123-303, 124-302, 196-303, 198-301, 199-297, 287-301",6924,-8.12354599,-34.90779866
149,1600,"VILA APRENDIZ",Recife,"RUA CORONEL ANÍZIO RODRIGUES COELHO, 305","BOA VIAGEM","33, 34, 35, 36","33-356, 34-357, 35-365, 36-361",1439,0,0
150,1210,"ASSOCIAÇÃO DOS SERVIDORES CLUBE DA SUDENE",Recife,"RUA ANTÔNIO CURADO, S/N","ENGENHO DO MEIO","17, 18, 19, 20, 21, 22, 23, 24, 25, 26","17-366, 18-364, 19-365, 20-364, 21-366, 22-364, 23-364, 24-366, 25-366, 26-365",3650,-8.0540027,-34.9414623
150,1511,"CENTRO MUNICIPAL DA EDUCAÇÃO INFANTIL DO BONGI",Recife,"RUA MAJOR MARIO PORTELA, 560 - BONGI","BONGI","194, 195, 196, 197, 199","194-311, 195-171, 196-168, 197-169, 199-231",1050,-8.0666117,-34.9153278
150,1600,"CLUBE BATUTAS DE SÃO JOSÉ",Recife,"RUA CABEDELO, 60 - AFOGADOS","AFOGADOS","318, 319, 320, 321, 322, 323, 324, 325, 326, 327","318-261, 319-261, 320-261, 321-261, 322-259, 323-261, 324-256, 325-258, 326-261, 327-260",2599,0,0
150,1180,"CLUBE SARGENTO WOLF",Recife,"RUA SARGENTO WOLF, 113","AFOGADOS","203, 204, 205, 206, 207, 217, 222, 225, 246, 257, 373, 381","203-377, 204-375, 205-380, 206-375, 207-379, 217-374, 222-379, 225-376, 246-380, 257-377, 373-366, 381-246",4384,-8.0715443,-34.9115018
150,1287,"COLÉGIO ANGLO LÍDER",Recife,"RUA DR. EDINALDO CAMPELO, 136","CORDEIRO","233, 239, 244, 250, 252, 258, 265, 270, 275, 282, 290, 298, 364","233-357, 239-353, 244-359, 250-357, 252-359, 258-359, 265-357, 270-356, 275-356, 282-360, 290-359, 298-358, 364-360",4650,-8.0532064,-34.9279681
150,1112,"COLEGIO PADRE JOSE DE ANCHIETA",Recife,"RUA MOCAMBIQUE, 165","MUSTARDINHA","129, 130, 131, 132, 133, 216, 226, 230, 240, 278","129-327, 130-330, 131-329, 132-334, 133-328, 216-323, 226-327, 230-330, 240-333, 278-330",3291,-8.0732049,-34.9178671
150,1082,"COLONIA PENAL FEMININA BOM PASTOR",Recife,"RUA BOM PASTOR, SN","IPUTINGA","369","369-0",0,-8.04959212,-34.93957499
150,1538,"CRECHE ESCOLA RECIFE MIGUEL ARRAES(ATRÁS DA ESC PINTOR LAURO VILLARES)",Recife,"RUA PINTOR HELIO FEIJÓ, S/N","TORROES","251, 256, 264, 267, 274, 376","251-372, 256-372, 264-372, 267-376, 274-374, 376-375",2241,0,0
150,1562,"CRECHE MUNICIPAL CEAPE",Recife,"RUA COSTA SEPULVEDA, 415-A","ENGENHO DO MEIO","260, 286, 293, 300","260-342, 286-337, 293-334, 300-326",1339,0,0
150,1252,"CRECHE MUNICIPAL DA MANGUEIRA",Recife,"RUA 21 DE ABRIL, 1559","MUSTARDINHA","231, 255, 269","231-336, 255-340, 269-335",1011,-8.0747505,-34.9212926
150,1554,"CRECHE MUNICIPAL WALDIR SAVLUCHINSKE",Recife,"RUA ALVARO TEIXEIRA DE MESQUITA","ENGENHO DO MEIO","234, 245, 259, 272, 281, 288","234-292, 245-292, 259-282, 272-240, 281-310, 288-293",1709,0,0
150,1244,"EDUCANDÁRIO SANTA TERESINHA",Recife,"RUA DESEMBARGADOR MEDEIROS CORREIA, 95","MUSTARDINHA","359, 360, 361, 362, 363, 371","359-334, 360-349, 361-364, 362-350, 363-339, 371-198",1934,-8.0743504,-34.91707803
150,1465,"ESCOLA ANTONIO FARIAS FILHO",Recife,"RUA 21 DE ABRIL, S/N","SAN MARTIN","328, 329, 330, 331, 332, 333, 334, 335, 336, 337, 338, 339, 340, 341, 342, 374","328-391, 329-389, 330-388, 331-387, 332-391, 333-391, 334-391, 335-390, 336-386, 337-391, 338-389, 339-390, 340-388, 341-387, 342-390, 374-382",6221,-8.0723236,-34.925852
150,1570,"ESCOLA ARCA DE NOÉ",Recife,"RUA DR. ADELINO, 289 - AFOGADOS","AFOGADOS","228, 247, 266, 279, 289","228-352, 247-347, 266-349, 279-349, 289-348",1745,0,0
150,1449,"ESCOLA CARMELA DUTRA",Recife,"RUA GENERAL SOUZA DOCA, S/N","AFOGADOS","311, 312, 313, 314, 315, 316","311-365, 312-360, 313-358, 314-361, 315-363, 316-366",2173,-8.0785692,-34.9144185
150,1597,"ESCOLA CHAVE DO SABER",Recife,"RUA JOSÉ MIRANDA, 172 - AFOGADOS","AFOGADOS","291, 297, 317","291-318, 297-322, 317-274",914,0,0
150,1015,"ESCOLA DIARIO DE PERNAMBUCO",Recife,"RUA COSTA SEPULVEDA,  SN","ENGENHO DO MEIO","1, 2, 3, 4, 5, 6, 7, 8, 9, 10, 11, 12, 13, 14, 15, 16, 212","1-357, 2-357, 3-357, 4-356, 5-356, 6-358, 7-356, 8-358, 9-355, 10-354, 11-357, 12-354, 13-355, 14-356, 15-355, 16-353, 212-355",6049,-8.0542829,-34.9400843
150,1139,"ESCOLA DOM BOSCO",Recife,"AVENIDA ENG ABDIAS DE CARVALHO, 1855, PRADO, RECIFE-PE","SAN MARTIN","146, 147, 148, 149, 150, 151, 152, 153, 154, 155, 156, 157","146-316, 147-315, 148-314, 149-312, 150-314, 151-315, 152-315, 153-316, 154-313, 155-313, 156-312, 157-312",3767,-8.0618728,-34.9238289
150,1546,"ESCOLA EDUCADOR PAULO FREIRE",Recife,"AV. ENGENHEIRO ABDIAS DE CARVALHO, S/N","BONGI","158, 159, 160, 161, 162, 163, 164, 165","158-303, 159-302, 160-299, 161-304, 162-306, 163-302, 164-301, 165-303",2420,0,0
150,1066,"ESCOLA FERNANDES VIEIRA",Recife,"AVENIDA CAXANGA , 3595","IPUTINGA","87, 88, 89, 90","87-285, 88-294, 89-289, 90-294",1162,-8.0411402,-34.9380077
150,1163,"ESCOLA GENERAL SAN MARTIN",Recife,"AV. GAL. SAN MARTIN, 864","SAN MARTIN","188, 189, 190, 191, 211, 213, 218, 377","188-394, 189-393, 190-392, 191-391, 211-394, 213-393, 218-395, 377-395",3147,-8.0673881,-34.9278914
150,1104,"ESCOLA JORNALISTA TRAJANO CHACON",Recife,"AV DO FORTE DO ARRAIAL DO BOM JESUS, 140","CORDEIRO","115, 116, 117, 118, 119, 120, 121, 122, 123, 124, 125, 126, 127, 128","115-356, 116-357, 117-355, 118-358, 119-359, 120-362, 121-358, 122-359, 123-357, 124-358, 125-360, 126-357, 127-356, 128-357",5009,-8.0484132,-34.9260646
150,1520,"ESCOLA MARIA GORETTI",Recife,"RUA PADRE TEOFILO TWORZ","AFOGADOS","202, 229, 236, 263, 277, 280, 292, 299, 378","202-216, 229-192, 236-316, 263-299, 277-298, 280-320, 292-308, 299-196, 378-189",2334,0,0
150,1350,"ESCOLA MUNICIPAL CREUSA DE FREITAS CAVALCANTI",Recife,"RUA EPAMINONDAS CRISTOVÃO DE OLIVEIRA, S/N - TORRÕES","TORROES","296, 302, 368","296-313, 302-297, 368-299",909,-8.0614742,-34.9356116
150,1473,"ESCOLA MUNICIPAL EDITE BRAGA",Recife,"RUA NICOLAU PEREIRA, 85","AFOGADOS","343, 344, 345","343-294, 344-111, 345-299",704,-8.0790561,-34.904918
150,1198,"ESCOLA MUNICIPAL ENGENHO DO MEIO",Recife,"RUA BOM PASTOR, S/Nº","ENGENHO DO MEIO","101, 215, 220, 223, 237, 248, 268","101-282, 215-286, 220-288, 223-290, 237-290, 248-288, 268-288",2012,-8.0497194,-34.9396189
150,1430,"ESCOLA MUNICIPAL PROFESSOR POTIGUAR MATOS",Recife,"AVENIDA VINTE E UM DE ABRIL, 2191, SAN MARTIN, RECIFE-PE","SAN MARTIN","304, 305, 306, 307, 308, 309, 310","304-359, 305-361, 306-359, 307-361, 308-361, 309-361, 310-359",2521,-8.0724019,-34.9256886
150,1120,"ESCOLA OTHON PARAISO",Recife,"AV MANOEL GONCALVES DA LUZ            140","MUSTARDINHA","134, 135, 136, 137, 138, 139, 140, 141, 142, 143, 144, 145, 372","134-399, 135-396, 136-396, 137-396, 138-397, 139-394, 140-395, 141-396, 142-397, 143-395, 144-393, 145-398, 372-395",5147,-8.0660922,-34.9170033
150,1201,"ESCOLA PINTOR LAURO VILLARES",Recife,"RUA CLARICE LISPECTOR, S/N - RODA DE FOGO","TORROES","214, 219, 224, 232, 238, 241, 243, 379","214-395, 219-398, 224-393, 232-392, 238-396, 241-398, 243-395, 379-394",3161,-8.0605874,-34.9379881
150,1155,"ESCOLA PRESIDENTE ARTUR DA COSTA E SILVA",Recife,"RUA TEJUCUPAPO, 536","MUSTARDINHA","179, 180, 181, 182, 183, 184, 185, 186, 187, 208","179-303, 180-309, 181-303, 182-301, 183-301, 184-302, 185-304, 186-300, 187-299, 208-298",3020,-8.0725579,-34.9229045
150,1147,"ESCOLA PROFESSOR ANTONIO DE BRITO ALVES",Recife,"RUA ERNESTO CAVALCANTI, S/N","MUSTARDINHA","166, 167, 168, 169, 170, 171, 172, 173, 174, 175, 176, 177, 178","166-301, 167-302, 168-302, 169-301, 170-301, 171-298, 172-300, 173-303, 174-302, 175-297, 176-301, 177-302, 178-303",3913,-8.0740214,-34.9180042
150,1031,"ESCOLA PROFESSOR LEAL DE BARROS",Recife,"RUA ANTONIO BORGES UCHOA                 SN","ENGENHO DO MEIO","27, 28, 29, 30, 31, 32, 33, 34, 35, 36, 375","27-379, 28-376, 29-379, 30-381, 31-378, 32-383, 33-378, 34-377, 35-382, 36-380, 375-380",4173,-8.0562502,-34.9438508
150,1384,"ESCOLA PROFESSORA FONTAINHA DE ABREU",Recife,"RUA ANTÔNIO CARLOS, S/N","TORROES","303, 365","303-238, 365-239",477,-8.0520234,-34.9373661
150,1325,"ESCOLA PROFESSORA HELENA PUGÓ",Recife,"RUA QUINZE DE MARÇO - S/N","TORROES","91, 92, 93, 94, 95, 96, 97, 98, 99, 100, 227, 242, 249, 253, 261, 262, 271, 276, 284, 285, 287, 294, 367, 370","91-365, 92-364, 93-365, 94-367, 95-364, 96-365, 97-362, 98-361, 99-364, 100-367, 227-360, 242-367, 249-361, 253-366, 261-362, 262-361, 271-363, 276-366, 284-366, 285-364, 287-362, 294-362, 367-363, 370-365",8732,-8.0677746,-34.9319254
150,1295,"ESCOLA SOUZA VERAS",Recife,"AV. GOVERNADOR GARRO LOPO, 875","ENGENHO DO MEIO","235, 254, 273, 283, 301","235-295, 254-299, 273-252, 283-299, 301-250",1395,-8.0514608,-34.9426332
150,1481,"ESCOLA VIDAL DE NEGREIROS",Recife,"RUA BEZERRA DA PALMA ,SN               ","AFOGADOS","346, 347, 348, 349, 350, 351, 352, 353, 354, 355, 356, 357, 358","346-362, 347-360, 348-362, 349-356, 350-363, 351-362, 352-360, 353-362, 354-361, 355-360, 356-364, 357-361, 358-357",4690,-8.077181,-34.9137707
150,1503,"FACULDADE IMACULADA CONCEIÇÃO DO RECIFE",Recife,"AV. CAXANGÁ, 3841","IPUTINGA","37, 38, 39, 40, 41, 42, 43, 44, 45, 46, 47, 48, 49, 50, 51, 52, 53, 54, 55, 56, 57, 58, 59, 60, 61, 62, 63","37-171, 38-170, 39-169, 40-178, 41-170, 42-170, 43-170, 44-170, 45-176, 46-175, 47-168, 48-167, 49-168, 50-171, 51-168, 52-166, 53-170, 54-167, 55-168, 56-170, 57-168, 58-173, 59-167, 60-170, 61-166, 62-166, 63-173",4585,-8.0401941,-34.9399495
